{"type":"FeatureCollection","features":[{"type":"Feature","geometry":{"type":"Point","coordinates":[2.357871,48.950241]},"properties":{"pdvid":"DEP-7-520399","pdvname":"Le Ninos","pdvtypeid":7,"pdvopeninghours":"Lundi-Dimanche","pdvhousenumber":"203","pdvstreet":"Avenue \u00c9lis\u00e9e Reclus","pdvpostcode":"93380","pdvtown":"SAINT-DENIS","pdvlatitude":48.950241,"pdvlongitude":2.357871,"pdvtypename":"Commerce de proximit\u00e9"}},{"type":"Feature","geometry":{"type":"Point","coordinates":[2.359349,48.963423]},"properties":{"pdvid":"DEP-7-520410","pdvname":"Le Balto","pdvtypeid":7,"pdvopeninghours":"Lundi-Dimanche","pdvhousenumber":"1","pdvstreet":"Rue de Paris","pdvpostcode":"93380","pdvtown":"SAINT-DENIS","pdvlatitude":48.963423,"pdvlongitude":2.359349,"pdvtypename":"Commerce de proximit\u00e9"}},{"type":"Feature","geometry":{"type":"Point","coordinates":[2.440312,48.883674]},"properties":{"pdvid":"DEP-7-520422","pdvname":"Le Carnot","pdvtypeid":7,"pdvopeninghours":"Lundi-Dimanche","pdvhousenumber":"1","pdvstreet":"Avenue de Verdun","pdvpostcode":"93230","pdvtown":"ROMAINVILLE","pdvlatitude":48.883674,"pdvlongitude":2.440312,"pdvtypename":"Commerce de proximit\u00e9"}},{"type":"Feature","geometry":{"type":"Point","coordinates":[2.303398,48.858449]},"properties":{"pdvid":"DEP-7-530524","pdvname":"Tabac Cave \u00c0 Cigare","pdvtypeid":7,"pdvopeninghours":null,"pdvhousenumber":"20","pdvstreet":"Avenue Bosquet","pdvpostcode":"75007","pdvtown":"PARIS","pdvlatitude":48.858449,"pdvlongitude":2.303398,"pdvtypename":"Commerce de proximit\u00e9"}},{"type":"Feature","geometry":{"type":"Point","coordinates":[2.319276,48.851393]},"properties":{"pdvid":"DEP-7-530595","pdvname":"Tabac Des Minist\u00e8res","pdvtypeid":7,"pdvopeninghours":"Lundi-Dimanche","pdvhousenumber":"45","pdvstreet":"Rue Vaneau","pdvpostcode":"75007","pdvtown":"PARIS","pdvlatitude":48.851393,"pdvlongitude":2.319276,"pdvtypename":"Commerce de proximit\u00e9"}},{"type":"Feature","geometry":{"type":"Point","coordinates":[2.223296,48.895541]},"properties":{"pdvid":"DEP-7-510070","pdvname":"La Civette Du Parc","pdvtypeid":7,"pdvopeninghours":"Lundi-Dimanche","pdvhousenumber":"11","pdvstreet":"Esplanade Charles de Gaulle","pdvpostcode":"92000","pdvtown":"NANTERRE","pdvlatitude":48.895541,"pdvlongitude":2.223296,"pdvtypename":"Commerce de proximit\u00e9"}},{"type":"Feature","geometry":{"type":"Point","coordinates":[2.532402,48.856072]},"properties":{"pdvid":"DEP-7-520541","pdvname":"Civette De La Mairie","pdvtypeid":7,"pdvopeninghours":"Lundi-Dimanche","pdvhousenumber":"10","pdvstreet":"Place du Chanoine Heroux","pdvpostcode":"93330","pdvtown":"NEUILLY-SUR-MARNE","pdvlatitude":48.856072,"pdvlongitude":2.532402,"pdvtypename":"Commerce de proximit\u00e9"}},{"type":"Feature","geometry":{"type":"Point","coordinates":[2.347554,48.858423]},"properties":{"pdvid":"DEP-7-530494","pdvname":"Le Tabac Du Chatelet","pdvtypeid":7,"pdvopeninghours":null,"pdvhousenumber":"8","pdvstreet":"Rue Saint-Denis","pdvpostcode":"75001","pdvtown":"PARIS","pdvlatitude":48.858423,"pdvlongitude":2.347554,"pdvtypename":"Commerce de proximit\u00e9"}},{"type":"Feature","geometry":{"type":"Point","coordinates":[2.334462,48.86739]},"properties":{"pdvid":"DEP-7-530256","pdvname":"Le Ventadour","pdvtypeid":7,"pdvopeninghours":null,"pdvhousenumber":"46","pdvstreet":"Rue des Petits Champs","pdvpostcode":"75002","pdvtown":"PARIS","pdvlatitude":48.86739,"pdvlongitude":2.334462,"pdvtypename":"Commerce de proximit\u00e9"}},{"type":"Feature","geometry":{"type":"Point","coordinates":[2.335989,48.80678]},"properties":{"pdvid":"DEP-7-530573","pdvname":"La Royale","pdvtypeid":7,"pdvopeninghours":"Lundi-Dimanche","pdvhousenumber":"122","pdvstreet":"Rue Marius Sidobre","pdvpostcode":"94110","pdvtown":"ARCUEIL","pdvlatitude":48.80678,"pdvlongitude":2.335989,"pdvtypename":"Commerce de proximit\u00e9"}},{"type":"Feature","geometry":{"type":"Point","coordinates":[2.224294,48.940479]},"properties":{"pdvid":"DEP-7-510427","pdvname":"La Tabati\u00e8re","pdvtypeid":7,"pdvopeninghours":null,"pdvhousenumber":"156","pdvstreet":"Avenue Jean Jaures","pdvpostcode":"95100","pdvtown":"ARGENTEUIL","pdvlatitude":48.940479,"pdvlongitude":2.224294,"pdvtypename":"Commerce de proximit\u00e9"}},{"type":"Feature","geometry":{"type":"Point","coordinates":[2.479534,48.903208]},"properties":{"pdvid":"DEP-7-520681","pdvname":"Tabac Du Centre","pdvtypeid":7,"pdvopeninghours":"Lundi-Dimanche","pdvhousenumber":"64","pdvstreet":"Rue Jules Guesde","pdvpostcode":"93140","pdvtown":"BONDY","pdvlatitude":48.903208,"pdvlongitude":2.479534,"pdvtypename":"Commerce de proximit\u00e9"}},{"type":"Feature","geometry":{"type":"Point","coordinates":[2.233676,48.833017]},"properties":{"pdvid":"DEP-7-510383","pdvname":"Le Silly","pdvtypeid":7,"pdvopeninghours":"Lundi-Dimanche","pdvhousenumber":"143","pdvstreet":"Rue de Silly","pdvpostcode":"92100","pdvtown":"BOULOGNE-BILLANCOURT","pdvlatitude":48.833017,"pdvlongitude":2.233676,"pdvtypename":"Commerce de proximit\u00e9"}},{"type":"Feature","geometry":{"type":"Point","coordinates":[2.238973,48.826882]},"properties":{"pdvid":"DEP-7-510650","pdvname":"Tabac - Presse","pdvtypeid":7,"pdvopeninghours":null,"pdvhousenumber":"54","pdvstreet":"Rue Marcel Bontemps","pdvpostcode":"92100","pdvtown":"BOULOGNE-BILLANCOURT","pdvlatitude":48.826882,"pdvlongitude":2.238973,"pdvtypename":"Commerce de proximit\u00e9"}},{"type":"Feature","geometry":{"type":"Point","coordinates":[2.519495,48.8344]},"properties":{"pdvid":"DEP-7-520520","pdvname":"La Navette De Bry","pdvtypeid":7,"pdvopeninghours":"Lundi-Dimanche","pdvhousenumber":"1","pdvstreet":"Place Daguerre","pdvpostcode":"94360","pdvtown":"BRY-SUR-MARNE","pdvlatitude":48.8344,"pdvlongitude":2.519495,"pdvtypename":"Commerce de proximit\u00e9"}},{"type":"Feature","geometry":{"type":"Point","coordinates":[2.550182,48.80678]},"properties":{"pdvid":"DEP-7-520714","pdvname":"Tabac Du Bois L'Abb\u00e9","pdvtypeid":7,"pdvopeninghours":null,"pdvhousenumber":"2","pdvstreet":"Place Rodin","pdvpostcode":"94500","pdvtown":"CHAMPIGNY-SUR-MARNE","pdvlatitude":48.80678,"pdvlongitude":2.550182,"pdvtypename":"Commerce de proximit\u00e9"}},{"type":"Feature","geometry":{"type":"Point","coordinates":[2.279202,48.766195]},"properties":{"pdvid":"DEP-7-530307","pdvname":"Le Voltaire","pdvtypeid":7,"pdvopeninghours":"Lundi-Dimanche","pdvhousenumber":"1","pdvstreet":"Place Voltaire","pdvpostcode":"92290","pdvtown":"CH\u00c2TENAY-MALABRY","pdvlatitude":48.766195,"pdvlongitude":2.279202,"pdvtypename":"Commerce de proximit\u00e9"}},{"type":"Feature","geometry":{"type":"Point","coordinates":[2.291581,48.808607]},"properties":{"pdvid":"DEP-7-530503","pdvname":"La Tabati\u00e8re","pdvtypeid":7,"pdvopeninghours":null,"pdvhousenumber":"80","pdvstreet":"Avenue Marcelin Berthelot","pdvpostcode":"92320","pdvtown":"CH\u00c2TILLON","pdvlatitude":48.808607,"pdvlongitude":2.291581,"pdvtypename":"Commerce de proximit\u00e9"}},{"type":"Feature","geometry":{"type":"Point","coordinates":[2.303428,48.904527]},"properties":{"pdvid":"DEP-7-510660","pdvname":"Bar Le Rallye","pdvtypeid":7,"pdvopeninghours":"Lundi-Dimanche","pdvhousenumber":"5","pdvstreet":"Rue du Landy","pdvpostcode":"92110","pdvtown":"CLICHY","pdvlatitude":48.904527,"pdvlongitude":2.303428,"pdvtypename":"Commerce de proximit\u00e9"}},{"type":"Feature","geometry":{"type":"Point","coordinates":[2.256369,48.897418]},"properties":{"pdvid":"DEP-7-510664","pdvname":"Le Chiquito","pdvtypeid":7,"pdvopeninghours":"Lundi-Dimanche","pdvhousenumber":"3","pdvstreet":"Rue De Colombes","pdvpostcode":"92400","pdvtown":"COURBEVOIE","pdvlatitude":48.897418,"pdvlongitude":2.256369,"pdvtypename":"Commerce de proximit\u00e9"}},{"type":"Feature","geometry":{"type":"Point","coordinates":[2.445051,48.791098]},"properties":{"pdvid":"DEP-7-530396","pdvname":"Tabac - Presse","pdvtypeid":7,"pdvopeninghours":null,"pdvhousenumber":"8","pdvstreet":"Boulevard Montaigut","pdvpostcode":"94000","pdvtown":"CR\u00c9TEIL","pdvlatitude":48.791098,"pdvlongitude":2.445051,"pdvtypename":"Commerce de proximit\u00e9"}},{"type":"Feature","geometry":{"type":"Point","coordinates":[2.41661,48.954838]},"properties":{"pdvid":"DEP-7-520709","pdvname":"Tabac Le Flash","pdvtypeid":7,"pdvopeninghours":null,"pdvhousenumber":"1","pdvstreet":"Place Gabriel P\u00e9ri","pdvpostcode":"93440","pdvtown":"DUGNY","pdvlatitude":48.954838,"pdvlongitude":2.41661,"pdvtypename":"Commerce de proximit\u00e9"}},{"type":"Feature","geometry":{"type":"Point","coordinates":[2.42575,48.790207]},"properties":{"pdvid":"DEP-7-540640","pdvname":"Le Bergerac","pdvtypeid":7,"pdvopeninghours":"Lundi-Dimanche","pdvhousenumber":"108","pdvstreet":"Rue Etienne Dolet","pdvpostcode":"94140","pdvtown":"ALFORTVILLE","pdvlatitude":48.790207,"pdvlongitude":2.42575,"pdvtypename":"Commerce de proximit\u00e9"}},{"type":"Feature","geometry":{"type":"Point","coordinates":[2.253044,48.948791]},"properties":{"pdvid":"DEP-7-510460","pdvname":"Le Brelan","pdvtypeid":7,"pdvopeninghours":"Lundi-Dimanche","pdvhousenumber":"2","pdvstreet":"Boulevard Leon Feix","pdvpostcode":"95100","pdvtown":"ARGENTEUIL","pdvlatitude":48.948791,"pdvlongitude":2.253044,"pdvtypename":"Commerce de proximit\u00e9"}},{"type":"Feature","geometry":{"type":"Point","coordinates":[2.283115,48.914921]},"properties":{"pdvid":"DEP-7-510654","pdvname":"Le Renitas","pdvtypeid":7,"pdvopeninghours":null,"pdvhousenumber":"102","pdvstreet":"Avenue d\u2019Argenteuil","pdvpostcode":"92600","pdvtown":"ASNI\u00c8RES-SUR-SEINE","pdvlatitude":48.914921,"pdvlongitude":2.283115,"pdvtypename":"Commerce de proximit\u00e9"}},{"type":"Feature","geometry":{"type":"Point","coordinates":[2.351405,48.691011]},"properties":{"pdvid":"DEP-7-530364","pdvname":"L'Escale","pdvtypeid":7,"pdvopeninghours":null,"pdvhousenumber":"111","pdvstreet":"Avenue de la Republique","pdvpostcode":"91600","pdvtown":"SAVIGNY-SUR-ORGE","pdvlatitude":48.691011,"pdvlongitude":2.351405,"pdvtypename":"Commerce de proximit\u00e9"}},{"type":"Feature","geometry":{"type":"Point","coordinates":[2.538995,48.82674]},"properties":{"pdvid":"DEP-7-520704","pdvname":"Le Rallye","pdvtypeid":7,"pdvopeninghours":"Lundi-Dimanche","pdvhousenumber":"17","pdvstreet":"Rue du G\u00e9n\u00e9ral de Gaulle","pdvpostcode":"94350","pdvtown":"VILLIERS-SUR-MARNE","pdvlatitude":48.82674,"pdvlongitude":2.538995,"pdvtypename":"Commerce de proximit\u00e9"}},{"type":"Feature","geometry":{"type":"Point","coordinates":[2.436097,48.844935]},"properties":{"pdvid":"DEP-7-520375","pdvname":"Le Drapeau","pdvtypeid":7,"pdvopeninghours":"Lundi-Dimanche","pdvhousenumber":"18","pdvstreet":"Avenue de Paris","pdvpostcode":"94300","pdvtown":"VINCENNES","pdvlatitude":48.844935,"pdvlongitude":2.436097,"pdvtypename":"Commerce de proximit\u00e9"}},{"type":"Feature","geometry":{"type":"Point","coordinates":[2.392054,48.785241]},"properties":{"pdvid":"DEP-7-530317","pdvname":"Clair De Plume","pdvtypeid":7,"pdvopeninghours":"Lundi-Dimanche","pdvhousenumber":"34","pdvstreet":"Avenue Youri Gagarine","pdvpostcode":"94400","pdvtown":"VITRY-SUR-SEINE","pdvlatitude":48.785241,"pdvlongitude":2.392054,"pdvtypename":"Commerce de proximit\u00e9"}},{"type":"Feature","geometry":{"type":"Point","coordinates":[2.286517,48.814039]},"properties":{"pdvid":"DEP-7-540391","pdvname":"Librairie - Presse","pdvtypeid":7,"pdvopeninghours":"Lundi-Dimanche","pdvhousenumber":"29","pdvstreet":"Boulevard de Stalingrad","pdvpostcode":"92240","pdvtown":"MALAKOFF","pdvlatitude":48.814039,"pdvlongitude":2.286517,"pdvtypename":"Commerce de proximit\u00e9"}},{"type":"Feature","geometry":{"type":"Point","coordinates":[2.224658,48.790047]},"properties":{"pdvid":"DEP-7-510656","pdvname":"Tabac Du Parc","pdvtypeid":7,"pdvopeninghours":null,"pdvhousenumber":"19","pdvstreet":"Avenue du Mar\u00e9chal Leclerc","pdvpostcode":"92360","pdvtown":"MEUDON","pdvlatitude":48.790047,"pdvlongitude":2.224658,"pdvtypename":"Commerce de proximit\u00e9"}},{"type":"Feature","geometry":{"type":"Point","coordinates":[2.223748,48.887692]},"properties":{"pdvid":"DEP-7-510638","pdvname":"La Cave \u00c0 Cigares","pdvtypeid":7,"pdvopeninghours":null,"pdvhousenumber":"27","pdvstreet":"Rue de la Paix","pdvpostcode":"92000","pdvtown":"NANTERRE","pdvlatitude":48.887692,"pdvlongitude":2.223748,"pdvtypename":"Commerce de proximit\u00e9"}},{"type":"Feature","geometry":{"type":"Point","coordinates":[2.270318,48.88697]},"properties":{"pdvid":"DEP-7-510473","pdvname":"La Royale","pdvtypeid":7,"pdvopeninghours":"Lundi-Dimanche","pdvhousenumber":"91","pdvstreet":"Rue Perronet","pdvpostcode":"92200","pdvtown":"NEUILLY-SUR-SEINE","pdvlatitude":48.88697,"pdvlongitude":2.270318,"pdvtypename":"Commerce de proximit\u00e9"}},{"type":"Feature","geometry":{"type":"Point","coordinates":[2.269076,48.88426]},"properties":{"pdvid":"DEP-7-540199","pdvname":"Kiosque De La Mairie","pdvtypeid":7,"pdvopeninghours":"Lundi-Dimanche","pdvhousenumber":"133","pdvstreet":"Avenue Achille Peretti","pdvpostcode":"92200","pdvtown":"NEUILLY-SUR-SEINE","pdvlatitude":48.88426,"pdvlongitude":2.269076,"pdvtypename":"Commerce de proximit\u00e9"}},{"type":"Feature","geometry":{"type":"Point","coordinates":[2.464469,48.899684]},"properties":{"pdvid":"DEP-7-520564","pdvname":"Le Magnanou","pdvtypeid":7,"pdvopeninghours":"Lundi-Dimanche","pdvhousenumber":"33","pdvstreet":"Avenue Galli\u00e9ni","pdvpostcode":"93130","pdvtown":"NOISY-LE-SEC","pdvlatitude":48.899684,"pdvlongitude":2.464469,"pdvtypename":"Commerce de proximit\u00e9"}},{"type":"Feature","geometry":{"type":"Point","coordinates":[2.346915,48.859738]},"properties":{"pdvid":"DEP-7-530156","pdvname":"Et Cetera","pdvtypeid":7,"pdvopeninghours":"Lundi-Dimanche","pdvhousenumber":"10","pdvstreet":"Rue des Halles","pdvpostcode":"75001","pdvtown":"PARIS","pdvlatitude":48.859738,"pdvlongitude":2.346915,"pdvtypename":"Commerce de proximit\u00e9"}},{"type":"Feature","geometry":{"type":"Point","coordinates":[2.356874,48.852335]},"properties":{"pdvid":"DEP-7-520574","pdvname":"Le Saint-Louis","pdvtypeid":7,"pdvopeninghours":"Lundi-Dimanche","pdvhousenumber":"37","pdvstreet":"Rue des Deux Ponts","pdvpostcode":"75004","pdvtown":"PARIS","pdvlatitude":48.852335,"pdvlongitude":2.356874,"pdvtypename":"Commerce de proximit\u00e9"}},{"type":"Feature","geometry":{"type":"Point","coordinates":[2.34347,48.851544]},"properties":{"pdvid":"DEP-7-530140","pdvname":"La Corona","pdvtypeid":7,"pdvopeninghours":"Lundi-Dimanche","pdvhousenumber":"21","pdvstreet":"Boulevard Saint-Michel","pdvpostcode":"75005","pdvtown":"PARIS","pdvlatitude":48.851544,"pdvlongitude":2.34347,"pdvtypename":"Commerce de proximit\u00e9"}},{"type":"Feature","geometry":{"type":"Point","coordinates":[2.266467,48.931824]},"properties":{"pdvid":"DEP-7-510237","pdvname":"La Belle Colombes","pdvtypeid":7,"pdvopeninghours":"Lundi-Dimanche","pdvhousenumber":"125","pdvstreet":"Avenue de Stalingrad","pdvpostcode":"92700","pdvtown":"COLOMBES","pdvlatitude":48.931824,"pdvlongitude":2.266467,"pdvtypename":"Commerce de proximit\u00e9"}},{"type":"Feature","geometry":{"type":"Point","coordinates":[2.2702,48.847811]},"properties":{"pdvid":"AGE-4-1273","pdvname":"Eglise_D_Auteuil","pdvtypeid":4,"pdvopeninghours":null,"pdvhousenumber":"3b","pdvstreet":"Square Th\u00e9ophile Gautier","pdvpostcode":"75016","pdvtown":"PARIS","pdvlatitude":48.847811,"pdvlongitude":2.2702,"pdvtypename":"Guichet Navigo"}},{"type":"Feature","geometry":{"type":"Point","coordinates":[2.295489,48.846929]},"properties":{"pdvid":"AGE-4-1275","pdvname":"Emile_Zola","pdvtypeid":4,"pdvopeninghours":null,"pdvhousenumber":"154","pdvstreet":"Avenue Emile Zola","pdvpostcode":"75015","pdvtown":"PARIS","pdvlatitude":48.846929,"pdvlongitude":2.295489,"pdvtypename":"Guichet Navigo"}},{"type":"Feature","geometry":{"type":"Point","coordinates":[2.322967,48.879051]},"properties":{"pdvid":"AGE-4-1280","pdvname":"Europe","pdvtypeid":4,"pdvopeninghours":null,"pdvhousenumber":"7","pdvstreet":"Place de l' Europe-Simone Veil","pdvpostcode":"75008","pdvtown":"PARIS","pdvlatitude":48.879051,"pdvlongitude":2.322967,"pdvtypename":"Guichet Navigo"}},{"type":"Feature","geometry":{"type":"Point","coordinates":[2.260148,48.842821]},"properties":{"pdvid":"AGE-4-1281","pdvname":"Exelmans","pdvtypeid":4,"pdvopeninghours":null,"pdvhousenumber":"71","pdvstreet":"Boulevard Exelmans","pdvpostcode":"75016","pdvtown":"PARIS","pdvlatitude":48.842821,"pdvlongitude":2.260148,"pdvtypename":"Guichet Navigo"}},{"type":"Feature","geometry":{"type":"Point","coordinates":[2.403482,48.914469]},"properties":{"pdvid":"AGE-4-1290","pdvname":"Fort_D_Aubervilliers","pdvtypeid":4,"pdvopeninghours":null,"pdvhousenumber":"213ter","pdvstreet":"Avenue Jean Jaur\u00e8s","pdvpostcode":"93300","pdvtown":"AUBERVILLIERS","pdvlatitude":48.914469,"pdvlongitude":2.403482,"pdvtypename":"Guichet Navigo"}},{"type":"Feature","geometry":{"type":"Point","coordinates":[2.331903,48.906427]},"properties":{"pdvid":"AGE-4-1307","pdvname":"Garibaldi","pdvtypeid":4,"pdvopeninghours":null,"pdvhousenumber":"74","pdvstreet":"Avenue Gabriel P\u00e9ri","pdvpostcode":"93400","pdvtown":"SAINT-OUEN-SUR-SEINE","pdvlatitude":48.906427,"pdvlongitude":2.331903,"pdvtypename":"Guichet Navigo"}},{"type":"Feature","geometry":{"type":"Point","coordinates":[2.300955,48.87226]},"properties":{"pdvid":"AGE-4-1309","pdvname":"George_V","pdvtypeid":4,"pdvopeninghours":null,"pdvhousenumber":"116","pdvstreet":"Avenue des Champs Elys\u00e9es","pdvpostcode":"75008","pdvtown":"PARIS","pdvlatitude":48.87226,"pdvlongitude":2.300955,"pdvtypename":"Guichet Navigo"}},{"type":"Feature","geometry":{"type":"Point","coordinates":[2.36221,48.878449]},"properties":{"pdvid":"AGE-5-1232","pdvname":"Chateau_Landon","pdvtypeid":5,"pdvopeninghours":null,"pdvhousenumber":"186","pdvstreet":"Rue du Faubourg Saint-Martin","pdvpostcode":"75010","pdvtown":"PARIS","pdvlatitude":48.878449,"pdvlongitude":2.36221,"pdvtypename":"Guichet Navigo"}},{"type":"Feature","geometry":{"type":"Point","coordinates":[2.395762,48.839525]},"properties":{"pdvid":"AGE-5-1264","pdvname":"Daumesnil","pdvtypeid":5,"pdvopeninghours":null,"pdvhousenumber":null,"pdvstreet":"Place F\u00e9lix Ebou\u00e9","pdvpostcode":"75012","pdvtown":"PARIS","pdvlatitude":48.839525,"pdvlongitude":2.395762,"pdvtypename":"Guichet Navigo"}},{"type":"Feature","geometry":{"type":"Point","coordinates":[2.332506,48.833981]},"properties":{"pdvid":"AGE-5-1265","pdvname":"Denfert_Metro","pdvtypeid":5,"pdvopeninghours":null,"pdvhousenumber":"1","pdvstreet":"Avenue du Colonel Henri Rol-Tanguy","pdvpostcode":"75014","pdvtown":"PARIS","pdvlatitude":48.833981,"pdvlongitude":2.332506,"pdvtypename":"Guichet Navigo"}},{"type":"Feature","geometry":{"type":"Point","coordinates":[2.250718,48.888028]},"properties":{"pdvid":"AGE-5-1276","pdvname":"Esplanade_De_La_Defense","pdvtypeid":5,"pdvopeninghours":null,"pdvhousenumber":"6","pdvstreet":"Esplanade Du G\u00e9n\u00e9ral De Gaulle","pdvpostcode":"92400","pdvtown":"COURBEVOIE","pdvlatitude":48.888028,"pdvlongitude":2.250718,"pdvtypename":"Guichet Navigo"}},{"type":"Feature","geometry":{"type":"Point","coordinates":[2.365959,48.907175]},"properties":{"pdvid":"AGE-5-1291","pdvname":"Front_Populaire","pdvtypeid":5,"pdvopeninghours":null,"pdvhousenumber":"2","pdvstreet":"Rue des Fillettes","pdvpostcode":"93300","pdvtown":"AUBERVILLIERS","pdvlatitude":48.907175,"pdvlongitude":2.365959,"pdvtypename":"Guichet Navigo"}},{"type":"Feature","geometry":{"type":"Point","coordinates":[2.370686,48.869758]},"properties":{"pdvid":"AGE-5-1313","pdvname":"Goncourt","pdvtypeid":5,"pdvopeninghours":null,"pdvhousenumber":null,"pdvstreet":"Rue du Faubourg du Temple","pdvpostcode":"75011","pdvtown":"PARIS","pdvlatitude":48.869758,"pdvlongitude":2.370686,"pdvtypename":"Guichet Navigo"}},{"type":"Feature","geometry":{"type":"Point","coordinates":[2.2935,48.874626]},"properties":{"pdvid":"AGE-6-1226","pdvname":"Charles De Gaulle - Etoile","pdvtypeid":6,"pdvopeninghours":null,"pdvhousenumber":"2","pdvstreet":"Avenue de la Grande Arm\u00e9e","pdvpostcode":"75017","pdvtown":"PARIS","pdvlatitude":48.874626,"pdvlongitude":2.2935,"pdvtypename":"Guichet Navigo"}},{"type":"Feature","geometry":{"type":"Point","coordinates":[2.258725,48.997095]},"properties":{"pdvid":"AGE-9-1365","pdvname":"Gros Noyer St Prix","pdvtypeid":9,"pdvopeninghours":null,"pdvhousenumber":"31","pdvstreet":"Rue Edouard Branly","pdvpostcode":"95120","pdvtown":"ERMONT","pdvlatitude":48.997095,"pdvlongitude":2.258725,"pdvtypename":"Guichet Navigo"}},{"type":"Feature","geometry":{"type":"Point","coordinates":[2.276449,48.872349]},"properties":{"pdvid":"AGE-11-1369","pdvname":"Avenue Foch","pdvtypeid":11,"pdvopeninghours":null,"pdvhousenumber":"94","pdvstreet":"Avenue Foch","pdvpostcode":"75016","pdvtown":"PARIS","pdvlatitude":48.872349,"pdvlongitude":2.276449,"pdvtypename":"Guichet Navigo"}},{"type":"Feature","geometry":{"type":"Point","coordinates":[2.358392,48.914978]},"properties":{"pdvid":"DEP-7-520721","pdvname":"Le Royal Club","pdvtypeid":7,"pdvopeninghours":null,"pdvhousenumber":"222","pdvstreet":null,"pdvpostcode":"93210","pdvtown":"LA PLAINE-SAINT-DENIS","pdvlatitude":48.914978,"pdvlongitude":2.358392,"pdvtypename":"Commerce de proximit\u00e9"}},{"type":"Feature","geometry":{"type":"Point","coordinates":[2.52683148604882,48.9491806680304]},"properties":{"pdvid":"DEP-7-540331","pdvname":"Le Totem","pdvtypeid":7,"pdvopeninghours":"Lundi-Dimanche","pdvhousenumber":null,"pdvstreet":"Avenue Andr\u00e9 Rousseau","pdvpostcode":"93270","pdvtown":"SEVRAN","pdvlatitude":48.9491806680304,"pdvlongitude":2.52683148604882,"pdvtypename":"Commerce de proximit\u00e9"}},{"type":"Feature","geometry":{"type":"Point","coordinates":[2.369227,48.995302]},"properties":{"pdvid":"AGE-9-1112","pdvname":"Sarcelles - Saint-Brice","pdvtypeid":9,"pdvopeninghours":null,"pdvhousenumber":"43","pdvstreet":"Boulevard du Docteur Galvani","pdvpostcode":"95350","pdvtown":"SAINT-BRICE-SOUS-FOR\u00caT","pdvlatitude":48.995302,"pdvlongitude":2.369227,"pdvtypename":"Guichet Navigo"}},{"type":"Feature","geometry":{"type":"Point","coordinates":[2.350907,48.675937]},"properties":{"pdvid":"AGE-9-1114","pdvname":"Savigny-Le-Temple","pdvtypeid":9,"pdvopeninghours":null,"pdvhousenumber":"2bis","pdvstreet":"Rue Chamberlin","pdvpostcode":"91600","pdvtown":"SAVIGNY-SUR-ORGE","pdvlatitude":48.675937,"pdvlongitude":2.350907,"pdvtypename":"Guichet Navigo"}},{"type":"Feature","geometry":{"type":"Point","coordinates":[2.534763,48.935718]},"properties":{"pdvid":"AGE-9-1116","pdvname":"Sevran - Livry","pdvtypeid":9,"pdvopeninghours":null,"pdvhousenumber":"5","pdvstreet":"Place Michel Debre","pdvpostcode":"93270","pdvtown":"SEVRAN","pdvlatitude":48.935718,"pdvlongitude":2.534763,"pdvtypename":"Guichet Navigo"}},{"type":"Feature","geometry":{"type":"Point","coordinates":[2.352316,48.918139]},"properties":{"pdvid":"AGE-9-1119","pdvname":"Stade De France St-Denis","pdvtypeid":9,"pdvopeninghours":null,"pdvhousenumber":"17","pdvstreet":"Avenue Fran\u00e7ois Mitterrand","pdvpostcode":"93210","pdvtown":"SAINT-DENIS","pdvlatitude":48.918139,"pdvlongitude":2.352316,"pdvtypename":"Guichet Navigo"}},{"type":"Feature","geometry":{"type":"Point","coordinates":[2.313057,48.653308]},"properties":{"pdvid":"AGE-9-1120","pdvname":"Ste-Genevi\u00e8ve-Des-Bois","pdvtypeid":9,"pdvopeninghours":null,"pdvhousenumber":"6","pdvstreet":"Place de la Gare","pdvpostcode":"91700","pdvtown":"SAINTE-GENEVI\u00c8VE-DES-BOIS","pdvlatitude":48.653308,"pdvlongitude":2.313057,"pdvtypename":"Guichet Navigo"}},{"type":"Feature","geometry":{"type":"Point","coordinates":[2.949537,48.960027]},"properties":{"pdvid":"AGE-9-1131","pdvname":"Trilport","pdvtypeid":9,"pdvopeninghours":null,"pdvhousenumber":"13","pdvstreet":"Avenue de la Gare","pdvpostcode":"77470","pdvtown":"TRILPORT","pdvlatitude":48.960027,"pdvlongitude":2.949537,"pdvtypename":"Guichet Navigo"}},{"type":"Feature","geometry":{"type":"Point","coordinates":[2.241886,48.836719]},"properties":{"pdvid":"DEP-7-510532","pdvname":"Le Lut\u00e9tia","pdvtypeid":7,"pdvopeninghours":"Lundi-Dimanche","pdvhousenumber":"127","pdvstreet":"Boulevard Jean Jaur\u00e8s","pdvpostcode":"92100","pdvtown":"BOULOGNE-BILLANCOURT","pdvlatitude":48.836719,"pdvlongitude":2.241886,"pdvtypename":"Commerce de proximit\u00e9"}},{"type":"Feature","geometry":{"type":"Point","coordinates":[2.404576,48.766548]},"properties":{"pdvid":"DEP-7-530510","pdvname":"Le Cl\u00e9menceau","pdvtypeid":7,"pdvopeninghours":null,"pdvhousenumber":"36","pdvstreet":"Rue Georges Cl\u00e9menceau","pdvpostcode":"94600","pdvtown":"CHOISY-LE-ROI","pdvlatitude":48.766548,"pdvlongitude":2.404576,"pdvtypename":"Commerce de proximit\u00e9"}},{"type":"Feature","geometry":{"type":"Point","coordinates":[2.313073,48.902898]},"properties":{"pdvid":"DEP-7-510621","pdvname":"Tbc De La R\u00e9publique","pdvtypeid":7,"pdvopeninghours":"Lundi-Dimanche","pdvhousenumber":"1","pdvstreet":"Place de la R\u00e9publique - Fran\u00e7ois Mitterrand","pdvpostcode":"92110","pdvtown":"CLICHY","pdvlatitude":48.902898,"pdvlongitude":2.313073,"pdvtypename":"Commerce de proximit\u00e9"}},{"type":"Feature","geometry":{"type":"Point","coordinates":[2.252573,48.917978]},"properties":{"pdvid":"DEP-7-510608","pdvname":"Le R\u00e9gence","pdvtypeid":7,"pdvopeninghours":"Lundi-Dimanche","pdvhousenumber":"76","pdvstreet":"Avenue Henri Barbusse","pdvpostcode":"92700","pdvtown":"COLOMBES","pdvlatitude":48.917978,"pdvlongitude":2.252573,"pdvtypename":"Commerce de proximit\u00e9"}},{"type":"Feature","geometry":{"type":"Point","coordinates":[2.488092,48.853548]},"properties":{"pdvid":"DEP-7-520613","pdvname":"Tabac Le Val","pdvtypeid":7,"pdvopeninghours":"Lundi-Dimanche","pdvhousenumber":"10","pdvstreet":"Avenue du Val de Fontenay","pdvpostcode":"94120","pdvtown":"FONTENAY-SOUS-BOIS","pdvlatitude":48.853548,"pdvlongitude":2.488092,"pdvtypename":"Commerce de proximit\u00e9"}},{"type":"Feature","geometry":{"type":"Point","coordinates":[2.319043,48.760069]},"properties":{"pdvid":"DEP-7-530441","pdvname":"Le Diplomate","pdvtypeid":7,"pdvopeninghours":null,"pdvhousenumber":"57","pdvstreet":"Avenue de la R\u00e8publique","pdvpostcode":"94260","pdvtown":"FRESNES","pdvlatitude":48.760069,"pdvlongitude":2.319043,"pdvtypename":"Commerce de proximit\u00e9"}},{"type":"Feature","geometry":{"type":"Point","coordinates":[2.43163,48.989772]},"properties":{"pdvid":"DEP-7-520732","pdvname":"Tabac Presse Grande Vall\u00e9e","pdvtypeid":7,"pdvopeninghours":null,"pdvhousenumber":"1","pdvstreet":"Avenue Georges Pompidou","pdvpostcode":"95500","pdvtown":"GONESSE","pdvlatitude":48.989772,"pdvlongitude":2.43163,"pdvtypename":"Commerce de proximit\u00e9"}},{"type":"Feature","geometry":{"type":"Point","coordinates":[2.272986,48.823827]},"properties":{"pdvid":"DEP-7-540400","pdvname":"Hall De Presse","pdvtypeid":7,"pdvopeninghours":"Lundi-Dimanche","pdvhousenumber":"1","pdvstreet":"Rue Auguste Gervais","pdvpostcode":"92130","pdvtown":"ISSY-LES-MOULINEAUX","pdvlatitude":48.823827,"pdvlongitude":2.272986,"pdvtypename":"Commerce de proximit\u00e9"}},{"type":"Feature","geometry":{"type":"Point","coordinates":[2.401901,48.814879]},"properties":{"pdvid":"DEP-7-530557","pdvname":"Le Mokaff\u00e9","pdvtypeid":7,"pdvopeninghours":"Lundi-Dimanche","pdvhousenumber":"125","pdvstreet":"Boulevard Paul Vaillant Couturier","pdvpostcode":"94200","pdvtown":"IVRY-SUR-SEINE","pdvlatitude":48.814879,"pdvlongitude":2.401901,"pdvtypename":"Commerce de proximit\u00e9"}},{"type":"Feature","geometry":{"type":"Point","coordinates":[2.353682,48.806977]},"properties":{"pdvid":"DEP-7-530574","pdvname":"Tabac La Plume Veroute","pdvtypeid":7,"pdvopeninghours":"Lundi-Dimanche","pdvhousenumber":"25","pdvstreet":"Avenue Charles Gide","pdvpostcode":"94270","pdvtown":"LE KREMLIN-BIC\u00caTRE","pdvlatitude":48.806977,"pdvlongitude":2.353682,"pdvtypename":"Commerce de proximit\u00e9"}},{"type":"Feature","geometry":{"type":"Point","coordinates":[2.498192,48.841036]},"properties":{"pdvid":"DEP-7-520658","pdvname":"Tabac Du Parc","pdvtypeid":7,"pdvopeninghours":null,"pdvhousenumber":"48","pdvstreet":"Avenue Ledru-rollin","pdvpostcode":"94170","pdvtown":"LE PERREUX-SUR-MARNE","pdvlatitude":48.841036,"pdvlongitude":2.498192,"pdvtypename":"Commerce de proximit\u00e9"}},{"type":"Feature","geometry":{"type":"Point","coordinates":[2.411131,48.879994]},"properties":{"pdvid":"DEP-7-540004","pdvname":"Tabac Du Babylone","pdvtypeid":7,"pdvopeninghours":"Lundi-Dimanche","pdvhousenumber":"5","pdvstreet":"Avenue Faidherbe","pdvpostcode":"93310","pdvtown":"LE PR\u00c9-SAINT-GERVAIS","pdvlatitude":48.879994,"pdvlongitude":2.411131,"pdvtypename":"Commerce de proximit\u00e9"}},{"type":"Feature","geometry":{"type":"Point","coordinates":[2.290323,48.893458]},"properties":{"pdvid":"DEP-7-510551","pdvname":"Le Caf\u00e9 Des Sports","pdvtypeid":7,"pdvopeninghours":"Lundi-Dimanche","pdvhousenumber":"34","pdvstreet":"Rue Rivay","pdvpostcode":"92300","pdvtown":"LEVALLOIS-PERRET","pdvlatitude":48.893458,"pdvlongitude":2.290323,"pdvtypename":"Commerce de proximit\u00e9"}},{"type":"Feature","geometry":{"type":"Point","coordinates":[2.322111,49.0665]},"properties":{"pdvid":"AGE-9-1066","pdvname":"Montsoult - Maffliers","pdvtypeid":9,"pdvopeninghours":null,"pdvhousenumber":"20","pdvstreet":"Rue Emile Combres","pdvpostcode":"95560","pdvtown":"MONTSOULT","pdvlatitude":49.0665,"pdvlongitude":2.322111,"pdvtypename":"Guichet Navigo"}},{"type":"Feature","geometry":{"type":"Point","coordinates":[2.7995,48.37823]},"properties":{"pdvid":"AGE-9-1067","pdvname":"Moret","pdvtypeid":9,"pdvopeninghours":null,"pdvhousenumber":null,"pdvstreet":"Place de la Gare","pdvpostcode":"77250","pdvtown":"MORET-LOING-ET-ORVANNE","pdvlatitude":48.37823,"pdvlongitude":2.7995,"pdvtypename":"Guichet Navigo"}},{"type":"Feature","geometry":{"type":"Point","coordinates":[2.32513,48.860379]},"properties":{"pdvid":"AGE-9-1068","pdvname":"Mus\u00e9e D'Orsay","pdvtypeid":9,"pdvopeninghours":null,"pdvhousenumber":"1","pdvstreet":"Rue de la L\u00e9gion d'Honneur","pdvpostcode":"75007","pdvtown":"PARIS","pdvlatitude":48.860379,"pdvlongitude":2.32513,"pdvtypename":"Guichet Navigo"}},{"type":"Feature","geometry":{"type":"Point","coordinates":[2.686081,48.268296]},"properties":{"pdvid":"AGE-9-1071","pdvname":"Nemours - Saint-Pierre","pdvtypeid":9,"pdvopeninghours":null,"pdvhousenumber":"32","pdvstreet":"Avenue Carnot","pdvpostcode":"77140","pdvtown":"NEMOURS","pdvlatitude":48.268296,"pdvlongitude":2.686081,"pdvtypename":"Guichet Navigo"}},{"type":"Feature","geometry":{"type":"Point","coordinates":[2.216516,48.856981]},"properties":{"pdvid":"AGE-9-1383","pdvname":"Le Val D'Or","pdvtypeid":9,"pdvopeninghours":null,"pdvhousenumber":"31bis","pdvstreet":"Avenue Alfred Belmontet","pdvpostcode":"92210","pdvtown":"SAINT-CLOUD","pdvlatitude":48.856981,"pdvlongitude":2.216516,"pdvtypename":"Guichet Navigo"}},{"type":"Feature","geometry":{"type":"Point","coordinates":[2.293954,48.844654]},"properties":{"pdvid":"AGE-4-1247","pdvname":"Commerce","pdvtypeid":4,"pdvopeninghours":null,"pdvhousenumber":"85","pdvstreet":"Rue du Commerce","pdvpostcode":"75015","pdvtown":"PARIS","pdvlatitude":48.844654,"pdvlongitude":2.293954,"pdvtypename":"Guichet Navigo"}},{"type":"Feature","geometry":{"type":"Point","coordinates":[2.322627,48.865237]},"properties":{"pdvid":"AGE-4-1248","pdvname":"Concorde","pdvtypeid":4,"pdvopeninghours":null,"pdvhousenumber":"9","pdvstreet":"Place de la Concorde","pdvpostcode":"75001","pdvtown":"PARIS","pdvlatitude":48.865237,"pdvlongitude":2.322627,"pdvtypename":"Guichet Navigo"}},{"type":"Feature","geometry":{"type":"Point","coordinates":[2.402435,48.74164]},"properties":{"pdvid":"AGE-9-1078","pdvname":"Orly Ville","pdvtypeid":9,"pdvopeninghours":null,"pdvhousenumber":null,"pdvstreet":"Place du 8 Mai 1945","pdvpostcode":"94310","pdvtown":"ORLY","pdvlatitude":48.74164,"pdvlongitude":2.402435,"pdvtypename":"Guichet Navigo"}},{"type":"Feature","geometry":{"type":"Point","coordinates":[2.689716,48.770926]},"properties":{"pdvid":"AGE-9-1079","pdvname":"Ozoir-La-Ferri\u00e8re","pdvtypeid":9,"pdvopeninghours":null,"pdvhousenumber":"9","pdvstreet":"Place Roger Nicolas","pdvpostcode":"77330","pdvtown":"OZOIR-LA-FERRI\u00c8RE","pdvlatitude":48.770926,"pdvlongitude":2.689716,"pdvtypename":"Guichet Navigo"}},{"type":"Feature","geometry":{"type":"Point","coordinates":[2.400404,48.897708]},"properties":{"pdvid":"AGE-9-1080","pdvname":"Pantin","pdvtypeid":9,"pdvopeninghours":null,"pdvhousenumber":"1","pdvstreet":"Avenue de la Gare","pdvpostcode":"93500","pdvtown":"PANTIN","pdvlatitude":48.897708,"pdvlongitude":2.400404,"pdvtypename":"Guichet Navigo"}},{"type":"Feature","geometry":{"type":"Point","coordinates":[2.270637,48.839523]},"properties":{"pdvid":"AGE-9-1089","pdvname":"Pont Du Garigliano","pdvtypeid":9,"pdvopeninghours":null,"pdvhousenumber":"183","pdvstreet":"Quai Andr\u00e9 Citro\u00ebn","pdvpostcode":"75015","pdvtown":"PARIS","pdvlatitude":48.839523,"pdvlongitude":2.270637,"pdvtypename":"Guichet Navigo"}},{"type":"Feature","geometry":{"type":"Point","coordinates":[2.431271,48.789598]},"properties":{"pdvid":"AGE-9-1040","pdvname":"Le Vert De Maisons","pdvtypeid":9,"pdvopeninghours":null,"pdvhousenumber":"57","pdvstreet":"Rue de Naples","pdvpostcode":"94140","pdvtown":"ALFORTVILLE","pdvlatitude":48.789598,"pdvlongitude":2.431271,"pdvtypename":"Guichet Navigo"}},{"type":"Feature","geometry":{"type":"Point","coordinates":[1.890838,48.721872]},"properties":{"pdvid":"AGE-9-1043","pdvname":"Les Essarts-Le-Roi","pdvtypeid":9,"pdvopeninghours":null,"pdvhousenumber":"46","pdvstreet":"Avenue de la Gare","pdvpostcode":"78690","pdvtown":"LES ESSARTS-LE-ROI","pdvlatitude":48.721872,"pdvlongitude":1.890838,"pdvtypename":"Guichet Navigo"}},{"type":"Feature","geometry":{"type":"Point","coordinates":[2.356719,48.879124]},"properties":{"pdvid":"DEP-7-520349","pdvname":"Le Lut\u00e9tia","pdvtypeid":7,"pdvopeninghours":"Lundi-Dimanche","pdvhousenumber":"156","pdvstreet":"Rue la Fayette","pdvpostcode":"75010","pdvtown":"PARIS","pdvlatitude":48.879124,"pdvlongitude":2.356719,"pdvtypename":"Commerce de proximit\u00e9"}},{"type":"Feature","geometry":{"type":"Point","coordinates":[2.382559,48.850529]},"properties":{"pdvid":"DEP-7-540057","pdvname":"Tabac Saint Antoine","pdvtypeid":7,"pdvopeninghours":"Lundi-Dimanche","pdvhousenumber":"203","pdvstreet":"Rue du Faubourg Saint-Antoine","pdvpostcode":"75011","pdvtown":"PARIS","pdvlatitude":48.850529,"pdvlongitude":2.382559,"pdvtypename":"Commerce de proximit\u00e9"}},{"type":"Feature","geometry":{"type":"Point","coordinates":[2.372516,48.84842]},"properties":{"pdvid":"DEP-7-520612","pdvname":"Le Royal Tabac","pdvtypeid":7,"pdvopeninghours":null,"pdvhousenumber":"58","pdvstreet":"Avenue Ledru-Rollin","pdvpostcode":"75012","pdvtown":"PARIS","pdvlatitude":48.84842,"pdvlongitude":2.372516,"pdvtypename":"Commerce de proximit\u00e9"}},{"type":"Feature","geometry":{"type":"Point","coordinates":[2.349661,48.827621]},"properties":{"pdvid":"DEP-7-530622","pdvname":"Le Lonchamps","pdvtypeid":7,"pdvopeninghours":"Lundi-Dimanche","pdvhousenumber":"21","pdvstreet":"Rue de la Butte aux Cailles","pdvpostcode":"75013","pdvtown":"PARIS","pdvlatitude":48.827621,"pdvlongitude":2.349661,"pdvtypename":"Commerce de proximit\u00e9"}},{"type":"Feature","geometry":{"type":"Point","coordinates":[2.367085,48.880193]},"properties":{"pdvid":"DEP-7-520702","pdvname":"Tabac Alexandre","pdvtypeid":7,"pdvopeninghours":null,"pdvhousenumber":"179","pdvstreet":"Quai de Valmy","pdvpostcode":"75010","pdvtown":"PARIS","pdvlatitude":48.880193,"pdvlongitude":2.367085,"pdvtypename":"Commerce de proximit\u00e9"}},{"type":"Feature","geometry":{"type":"Point","coordinates":[2.381844,48.828652]},"properties":{"pdvid":"DEP-7-530165","pdvname":"Maison De La Presse","pdvtypeid":7,"pdvopeninghours":"Lundi-Dimanche","pdvhousenumber":"7","pdvstreet":"Rue Elsa Morante","pdvpostcode":"75013","pdvtown":"PARIS","pdvlatitude":48.828652,"pdvlongitude":2.381844,"pdvtypename":"Commerce de proximit\u00e9"}},{"type":"Feature","geometry":{"type":"Point","coordinates":[2.318257,48.844485]},"properties":{"pdvid":"DEP-7-510647","pdvname":"Le Falgui\u00e8re","pdvtypeid":7,"pdvopeninghours":null,"pdvhousenumber":"129","pdvstreet":"Rue de Vaugirard","pdvpostcode":"75015","pdvtown":"PARIS","pdvlatitude":48.844485,"pdvlongitude":2.318257,"pdvtypename":"Commerce de proximit\u00e9"}},{"type":"Feature","geometry":{"type":"Point","coordinates":[2.286648,48.857096]},"properties":{"pdvid":"DEP-7-510566","pdvname":"Kennedy Eiffel","pdvtypeid":7,"pdvopeninghours":"Lundi-Dimanche","pdvhousenumber":"16","pdvstreet":"Avenue du Pr\u00e9sident Kennedy","pdvpostcode":"75016","pdvtown":"PARIS","pdvlatitude":48.857096,"pdvlongitude":2.286648,"pdvtypename":"Commerce de proximit\u00e9"}},{"type":"Feature","geometry":{"type":"Point","coordinates":[2.269597,48.854733]},"properties":{"pdvid":"DEP-7-510634","pdvname":"La Parisienne","pdvtypeid":7,"pdvopeninghours":null,"pdvhousenumber":"57","pdvstreet":"Avenue Mozart","pdvpostcode":"75016","pdvtown":"PARIS","pdvlatitude":48.854733,"pdvlongitude":2.269597,"pdvtypename":"Commerce de proximit\u00e9"}},{"type":"Feature","geometry":{"type":"Point","coordinates":[2.300828,48.888805]},"properties":{"pdvid":"DEP-7-510324","pdvname":"Le Voltigeur","pdvtypeid":7,"pdvopeninghours":"Lundi-Dimanche","pdvhousenumber":"118","pdvstreet":"Boulevard Berthier","pdvpostcode":"75017","pdvtown":"PARIS","pdvlatitude":48.888805,"pdvlongitude":2.300828,"pdvtypename":"Commerce de proximit\u00e9"}},{"type":"Feature","geometry":{"type":"Point","coordinates":[2.292172,48.885438]},"properties":{"pdvid":"DEP-7-510538","pdvname":"Le Calumet","pdvtypeid":7,"pdvopeninghours":"Lundi-Dimanche","pdvhousenumber":"145","pdvstreet":"Avenue de Villiers","pdvpostcode":"75017","pdvtown":"PARIS","pdvlatitude":48.885438,"pdvlongitude":2.292172,"pdvtypename":"Commerce de proximit\u00e9"}},{"type":"Feature","geometry":{"type":"Point","coordinates":[2.349398,48.89144]},"properties":{"pdvid":"DEP-7-510479","pdvname":"Le Rallye","pdvtypeid":7,"pdvopeninghours":null,"pdvhousenumber":"79","pdvstreet":"Boulevard Barb\u00e8s","pdvpostcode":"75018","pdvtown":"PARIS","pdvlatitude":48.89144,"pdvlongitude":2.349398,"pdvtypename":"Commerce de proximit\u00e9"}},{"type":"Feature","geometry":{"type":"Point","coordinates":[2.352403,48.840813]},"properties":{"pdvid":"DEP-7-530380","pdvname":"Le Mirbel","pdvtypeid":7,"pdvopeninghours":null,"pdvhousenumber":"4","pdvstreet":"Rue de Mirbel","pdvpostcode":"75005","pdvtown":"PARIS","pdvlatitude":48.840813,"pdvlongitude":2.352403,"pdvtypename":"Commerce de proximit\u00e9"}},{"type":"Feature","geometry":{"type":"Point","coordinates":[2.338028,48.841817]},"properties":{"pdvid":"DEP-7-530598","pdvname":"Civette St Michel","pdvtypeid":7,"pdvopeninghours":null,"pdvhousenumber":"137","pdvstreet":"Boulevard Saint-Michel","pdvpostcode":"75005","pdvtown":"PARIS","pdvlatitude":48.841817,"pdvlongitude":2.338028,"pdvtypename":"Commerce de proximit\u00e9"}},{"type":"Feature","geometry":{"type":"Point","coordinates":[2.339564,48.874628]},"properties":{"pdvid":"DEP-7-510235","pdvname":"Le Vizir","pdvtypeid":7,"pdvopeninghours":"Lundi-Dimanche","pdvhousenumber":"42","pdvstreet":"Rue la Fayette","pdvpostcode":"75009","pdvtown":"PARIS","pdvlatitude":48.874628,"pdvlongitude":2.339564,"pdvtypename":"Commerce de proximit\u00e9"}},{"type":"Feature","geometry":{"type":"Point","coordinates":[2.329648,48.759995]},"properties":{"pdvid":"DEP-7-530599","pdvname":"Tabac De La Paix","pdvtypeid":7,"pdvopeninghours":"Lundi-Dimanche","pdvhousenumber":"43","pdvstreet":"Avenue de la Paix","pdvpostcode":"94260","pdvtown":"FRESNES","pdvlatitude":48.759995,"pdvlongitude":2.329648,"pdvtypename":"Commerce de proximit\u00e9"}},{"type":"Feature","geometry":{"type":"Point","coordinates":[2.297188,48.933584]},"properties":{"pdvid":"DEP-7-510682","pdvname":"Le Diplomate","pdvtypeid":7,"pdvopeninghours":null,"pdvhousenumber":"60","pdvstreet":"rue jean-pierre timbaud","pdvpostcode":"92230","pdvtown":"GENNEVILLIERS","pdvlatitude":48.933584,"pdvlongitude":2.297188,"pdvtypename":"Commerce de proximit\u00e9"}},{"type":"Feature","geometry":{"type":"Point","coordinates":[2.351708,48.815862]},"properties":{"pdvid":"DEP-7-540583","pdvname":"Librairie-Papeterie","pdvtypeid":7,"pdvopeninghours":"Lundi-Dimanche","pdvhousenumber":"28","pdvstreet":"Rue Charles Fr\u00e9rot","pdvpostcode":"94250","pdvtown":"GENTILLY","pdvlatitude":48.815862,"pdvlongitude":2.351708,"pdvtypename":"Commerce de proximit\u00e9"}},{"type":"Feature","geometry":{"type":"Point","coordinates":[2.382719,48.886403]},"properties":{"pdvid":"DEP-7-520580","pdvname":"Tabac La Lorraine","pdvtypeid":7,"pdvopeninghours":"Lundi-Dimanche","pdvhousenumber":"127","pdvstreet":"Avenue Jean Jaur\u00e8s","pdvpostcode":"75019","pdvtown":"PARIS","pdvlatitude":48.886403,"pdvlongitude":2.382719,"pdvtypename":"Commerce de proximit\u00e9"}},{"type":"Feature","geometry":{"type":"Point","coordinates":[2.399209,48.875743]},"properties":{"pdvid":"DEP-7-520583","pdvname":"Civette T\u00e9l\u00e8graphe","pdvtypeid":7,"pdvopeninghours":null,"pdvhousenumber":"1","pdvstreet":"Rue de Romainville","pdvpostcode":"75019","pdvtown":"PARIS","pdvlatitude":48.875743,"pdvlongitude":2.399209,"pdvtypename":"Commerce de proximit\u00e9"}},{"type":"Feature","geometry":{"type":"Point","coordinates":[2.382603,48.87516]},"properties":{"pdvid":"DEP-7-540260","pdvname":"Tabac Presse","pdvtypeid":7,"pdvopeninghours":"Lundi-Dimanche","pdvhousenumber":"36","pdvstreet":"Avenue Simon Bolivar","pdvpostcode":"75019","pdvtown":"PARIS","pdvlatitude":48.87516,"pdvlongitude":2.382603,"pdvtypename":"Commerce de proximit\u00e9"}},{"type":"Feature","geometry":{"type":"Point","coordinates":[2.377585,48.993578]},"properties":{"pdvid":"DEP-7-520163","pdvname":"Le Celtique","pdvtypeid":7,"pdvopeninghours":"Lundi-Dimanche","pdvhousenumber":"83","pdvstreet":"Rue Pierre Brossolette","pdvpostcode":"95200","pdvtown":"SARCELLES","pdvlatitude":48.993578,"pdvlongitude":2.377585,"pdvtypename":"Commerce de proximit\u00e9"}},{"type":"Feature","geometry":{"type":"Point","coordinates":[2.195613,48.94561]},"properties":{"pdvid":"DEP-7-510528","pdvname":"Librairie Des Indes","pdvtypeid":7,"pdvopeninghours":null,"pdvhousenumber":"6","pdvstreet":"Place Stendhal","pdvpostcode":"78500","pdvtown":"SARTROUVILLE","pdvlatitude":48.94561,"pdvlongitude":2.195613,"pdvtypename":"Commerce de proximit\u00e9"}},{"type":"Feature","geometry":{"type":"Point","coordinates":[2.307809,48.844018]},"properties":{"pdvid":"DEP-7-510662","pdvname":"Tabac Lecourbe","pdvtypeid":7,"pdvopeninghours":"Lundi-Dimanche","pdvhousenumber":"37","pdvstreet":"Rue Lecourbe","pdvpostcode":"75015","pdvtown":"PARIS","pdvlatitude":48.844018,"pdvlongitude":2.307809,"pdvtypename":"Commerce de proximit\u00e9"}},{"type":"Feature","geometry":{"type":"Point","coordinates":[2.319844,48.894351]},"properties":{"pdvid":"DEP-7-510507","pdvname":"Le Carol\u00e8ne","pdvtypeid":7,"pdvopeninghours":null,"pdvhousenumber":"56","pdvstreet":"Rue Berz\u00e9lius","pdvpostcode":"75017","pdvtown":"PARIS","pdvlatitude":48.894351,"pdvlongitude":2.319844,"pdvtypename":"Commerce de proximit\u00e9"}},{"type":"Feature","geometry":{"type":"Point","coordinates":[2.389018,48.875275]},"properties":{"pdvid":"DEP-7-520474","pdvname":"Tabac La Gitane","pdvtypeid":7,"pdvopeninghours":null,"pdvhousenumber":"3","pdvstreet":"Rue Lassus","pdvpostcode":"75019","pdvtown":"PARIS","pdvlatitude":48.875275,"pdvlongitude":2.389018,"pdvtypename":"Commerce de proximit\u00e9"}},{"type":"Feature","geometry":{"type":"Point","coordinates":[2.359471,48.82628]},"properties":{"pdvid":"DEP-7-530194","pdvname":"La Bouffarde","pdvtypeid":7,"pdvopeninghours":"Lundi-Dimanche","pdvhousenumber":"124","pdvstreet":"Rue de Tolbiac","pdvpostcode":"75013","pdvtown":"PARIS","pdvlatitude":48.82628,"pdvlongitude":2.359471,"pdvtypename":"Commerce de proximit\u00e9"}},{"type":"Feature","geometry":{"type":"Point","coordinates":[2.313502,48.843126]},"properties":{"pdvid":"DEP-7-510544","pdvname":"Tabac Art Et Galerie","pdvtypeid":7,"pdvopeninghours":"Lundi-Dimanche","pdvhousenumber":"177","pdvstreet":"Rue de Vaugirard","pdvpostcode":"75015","pdvtown":"PARIS","pdvlatitude":48.843126,"pdvlongitude":2.313502,"pdvtypename":"Commerce de proximit\u00e9"}},{"type":"Feature","geometry":{"type":"Point","coordinates":[2.405888,48.826213]},"properties":{"pdvid":"DEP-7-530454","pdvname":"Civette De La Coupol","pdvtypeid":7,"pdvopeninghours":"Lundi-Dimanche","pdvhousenumber":"3","pdvstreet":"Place des Marseillais","pdvpostcode":"94220","pdvtown":"CHARENTON-LE-PONT","pdvlatitude":48.826213,"pdvlongitude":2.405888,"pdvtypename":"Commerce de proximit\u00e9"}},{"type":"Feature","geometry":{"type":"Point","coordinates":[2.419547,48.818551]},"properties":{"pdvid":"DEP-7-530579","pdvname":"L' Aubrac","pdvtypeid":7,"pdvopeninghours":"Lundi-Dimanche","pdvhousenumber":"1","pdvstreet":"Av du Mal de Lattre de Tassigny","pdvpostcode":"94220","pdvtown":"CHARENTON-LE-PONT","pdvlatitude":48.818551,"pdvlongitude":2.419547,"pdvtypename":"Commerce de proximit\u00e9"}},{"type":"Feature","geometry":{"type":"Point","coordinates":[2.310768,48.694327]},"properties":{"pdvid":"DEP-7-530535","pdvname":"Le Cardinal","pdvtypeid":7,"pdvopeninghours":"Lundi-Dimanche","pdvhousenumber":"71","pdvstreet":"Rue Pierre Mend\u00e9s France","pdvpostcode":"91380","pdvtown":"CHILLY-MAZARIN","pdvlatitude":48.694327,"pdvlongitude":2.310768,"pdvtypename":"Commerce de proximit\u00e9"}},{"type":"Feature","geometry":{"type":"Point","coordinates":[2.360017,48.887742]},"properties":{"pdvid":"DEP-7-510600","pdvname":"Tabac La Com\u00e8te","pdvtypeid":7,"pdvopeninghours":null,"pdvhousenumber":"50","pdvstreet":"Rue Marx Dormoy","pdvpostcode":"75018","pdvtown":"PARIS","pdvlatitude":48.887742,"pdvlongitude":2.360017,"pdvtypename":"Commerce de proximit\u00e9"}},{"type":"Feature","geometry":{"type":"Point","coordinates":[2.363359,48.892973]},"properties":{"pdvid":"DEP-7-510648","pdvname":"La Rotonde H\u00e9bertine","pdvtypeid":7,"pdvopeninghours":null,"pdvhousenumber":"3","pdvstreet":"Place H\u00e9bert","pdvpostcode":"75018","pdvtown":"PARIS","pdvlatitude":48.892973,"pdvlongitude":2.363359,"pdvtypename":"Commerce de proximit\u00e9"}},{"type":"Feature","geometry":{"type":"Point","coordinates":[2.352546,48.777917]},"properties":{"pdvid":"DEP-7-530630","pdvname":"Le Week End","pdvtypeid":7,"pdvopeninghours":"Lundi-Dimanche","pdvhousenumber":"31","pdvstreet":"Avenue des Dahlias","pdvpostcode":"94240","pdvtown":"L'HA\u0178-LES-ROSES","pdvlatitude":48.777917,"pdvlongitude":2.352546,"pdvtypename":"Commerce de proximit\u00e9"}},{"type":"Feature","geometry":{"type":"Point","coordinates":[2.288936,48.690083]},"properties":{"pdvid":"DEP-7-530261","pdvname":"Tabac Des Arcades","pdvtypeid":7,"pdvopeninghours":"Lundi-Dimanche","pdvhousenumber":"163","pdvstreet":"Rue Pdt Francois Mitterrand","pdvpostcode":"91160","pdvtown":"LONGJUMEAU","pdvlatitude":48.690083,"pdvlongitude":2.288936,"pdvtypename":"Commerce de proximit\u00e9"}},{"type":"Feature","geometry":{"type":"Point","coordinates":[2.474454,48.861075]},"properties":{"pdvid":"DEP-7-520720","pdvname":"Tabac De La Paix","pdvtypeid":7,"pdvopeninghours":"Lundi-Dimanche","pdvhousenumber":"148","pdvstreet":"Rue des Ruffins","pdvpostcode":"93100","pdvtown":"MONTREUIL","pdvlatitude":48.861075,"pdvlongitude":2.474454,"pdvtypename":"Commerce de proximit\u00e9"}},{"type":"Feature","geometry":{"type":"Point","coordinates":[2.510732,48.865455]},"properties":{"pdvid":"DEP-7-520047","pdvname":"Virgule","pdvtypeid":7,"pdvopeninghours":"Lundi-Dimanche","pdvhousenumber":"3","pdvstreet":"Rue des Renouill\u00e8res","pdvpostcode":"93360","pdvtown":"NEUILLY-PLAISANCE","pdvlatitude":48.865455,"pdvlongitude":2.510732,"pdvtypename":"Commerce de proximit\u00e9"}},{"type":"Feature","geometry":{"type":"Point","coordinates":[2.285148,48.92874]},"properties":{"pdvid":"DEP-7-510640","pdvname":"Le Mozart","pdvtypeid":7,"pdvopeninghours":"Lundi-Dimanche","pdvhousenumber":"11bis","pdvstreet":"Rue Mozart","pdvpostcode":"92230","pdvtown":"GENNEVILLIERS","pdvlatitude":48.92874,"pdvlongitude":2.285148,"pdvtypename":"Commerce de proximit\u00e9"}},{"type":"Feature","geometry":{"type":"Point","coordinates":[2.462867,48.923985]},"properties":{"pdvid":"DEP-7-520338","pdvname":"Les Copains","pdvtypeid":7,"pdvopeninghours":null,"pdvhousenumber":"213","pdvstreet":"Avenue Paul Vaillant Couturier","pdvpostcode":"93150","pdvtown":"LE BLANC-MESNIL","pdvlatitude":48.923985,"pdvlongitude":2.462867,"pdvtypename":"Commerce de proximit\u00e9"}},{"type":"Feature","geometry":{"type":"Point","coordinates":[2.256181,48.776879]},"properties":{"pdvid":"DEP-7-510401","pdvname":"Tabac Du March\u00e9","pdvtypeid":7,"pdvopeninghours":null,"pdvhousenumber":"10","pdvstreet":"Avenue de la Lib\u00e9ration","pdvpostcode":"92350","pdvtown":"LE PLESSIS-ROBINSON","pdvlatitude":48.776879,"pdvlongitude":2.256181,"pdvtypename":"Commerce de proximit\u00e9"}},{"type":"Feature","geometry":{"type":"Point","coordinates":[2.355227,48.856728]},"properties":{"pdvid":"DEP-7-520469","pdvname":"Le Tabac De Rivoli","pdvtypeid":7,"pdvopeninghours":null,"pdvhousenumber":"44","pdvstreet":"Rue de Rivoli","pdvpostcode":"75004","pdvtown":"PARIS","pdvlatitude":48.856728,"pdvlongitude":2.355227,"pdvtypename":"Commerce de proximit\u00e9"}},{"type":"Feature","geometry":{"type":"Point","coordinates":[2.325585,48.849165]},"properties":{"pdvid":"DEP-7-530525","pdvname":"Cherche Midi Presse","pdvtypeid":7,"pdvopeninghours":null,"pdvhousenumber":"52","pdvstreet":"Rue du Cherche-Midi","pdvpostcode":"75006","pdvtown":"PARIS","pdvlatitude":48.849165,"pdvlongitude":2.325585,"pdvtypename":"Commerce de proximit\u00e9"}},{"type":"Feature","geometry":{"type":"Point","coordinates":[2.328428,48.848436]},"properties":{"pdvid":"DEP-7-530586","pdvname":"Civette Rennes","pdvtypeid":7,"pdvopeninghours":null,"pdvhousenumber":"111","pdvstreet":"Rue de Rennes","pdvpostcode":"75006","pdvtown":"PARIS","pdvlatitude":48.848436,"pdvlongitude":2.328428,"pdvtypename":"Commerce de proximit\u00e9"}},{"type":"Feature","geometry":{"type":"Point","coordinates":[2.330756,48.843782]},"properties":{"pdvid":"DEP-7-530635","pdvname":"La Civette Brea","pdvtypeid":7,"pdvopeninghours":null,"pdvhousenumber":"54","pdvstreet":"Rue Notre-Dame des Champs","pdvpostcode":"75006","pdvtown":"PARIS","pdvlatitude":48.843782,"pdvlongitude":2.330756,"pdvtypename":"Commerce de proximit\u00e9"}},{"type":"Feature","geometry":{"type":"Point","coordinates":[2.297873,48.858934]},"properties":{"pdvid":"DEP-7-530357","pdvname":"Tabac Eiffel","pdvtypeid":7,"pdvopeninghours":null,"pdvhousenumber":"22","pdvstreet":"Avenue de la Bourdonnais","pdvpostcode":"75007","pdvtown":"PARIS","pdvlatitude":48.858934,"pdvlongitude":2.297873,"pdvtypename":"Commerce de proximit\u00e9"}},{"type":"Feature","geometry":{"type":"Point","coordinates":[2.366237,48.831514]},"properties":{"pdvid":"DEP-7-530392","pdvname":"Le Narval","pdvtypeid":7,"pdvopeninghours":"Lundi-Dimanche","pdvhousenumber":"58","pdvstreet":"Rue Jeanne d'Arc","pdvpostcode":"75013","pdvtown":"PARIS","pdvlatitude":48.831514,"pdvlongitude":2.366237,"pdvtypename":"Commerce de proximit\u00e9"}},{"type":"Feature","geometry":{"type":"Point","coordinates":[2.361861,48.819006]},"properties":{"pdvid":"DEP-7-530552","pdvname":"Tabac - Presse","pdvtypeid":7,"pdvopeninghours":null,"pdvhousenumber":"129","pdvstreet":"Boulevard Mass\u00e9na","pdvpostcode":"75013","pdvtown":"PARIS","pdvlatitude":48.819006,"pdvlongitude":2.361861,"pdvtypename":"Commerce de proximit\u00e9"}},{"type":"Feature","geometry":{"type":"Point","coordinates":[2.440589,48.91478]},"properties":{"pdvid":"DEP-7-520346","pdvname":"Le Belwo","pdvtypeid":7,"pdvopeninghours":null,"pdvhousenumber":"63","pdvstreet":"Avenue Louis Aragon","pdvpostcode":"93000","pdvtown":"BOBIGNY","pdvlatitude":48.91478,"pdvlongitude":2.440589,"pdvtypename":"Commerce de proximit\u00e9"}},{"type":"Feature","geometry":{"type":"Point","coordinates":[2.371274,48.856908]},"properties":{"pdvid":"DEP-7-540661","pdvname":"Habanos","pdvtypeid":7,"pdvopeninghours":"Lundi-Dimanche","pdvhousenumber":"32","pdvstreet":"Boulevard Richard Lenoir","pdvpostcode":"75011","pdvtown":"PARIS","pdvlatitude":48.856908,"pdvlongitude":2.371274,"pdvtypename":"Commerce de proximit\u00e9"}},{"type":"Feature","geometry":{"type":"Point","coordinates":[2.401605,48.837148]},"properties":{"pdvid":"DEP-7-520641","pdvname":"La Civette Daumesnil","pdvtypeid":7,"pdvopeninghours":"Lundi-Dimanche","pdvhousenumber":"242","pdvstreet":"Avenue Daumesnil","pdvpostcode":"75012","pdvtown":"PARIS","pdvlatitude":48.837148,"pdvlongitude":2.401605,"pdvtypename":"Commerce de proximit\u00e9"}},{"type":"Feature","geometry":{"type":"Point","coordinates":[2.372673,48.82847]},"properties":{"pdvid":"DEP-7-530249","pdvname":"Tabac Tolbiac","pdvtypeid":7,"pdvopeninghours":"Lundi-Dimanche","pdvhousenumber":"34","pdvstreet":"Rue de Tolbiac","pdvpostcode":"75013","pdvtown":"PARIS","pdvlatitude":48.82847,"pdvlongitude":2.372673,"pdvtypename":"Commerce de proximit\u00e9"}},{"type":"Feature","geometry":{"type":"Point","coordinates":[2.361778,48.833642]},"properties":{"pdvid":"DEP-7-530555","pdvname":"Civette Nationale","pdvtypeid":7,"pdvopeninghours":null,"pdvhousenumber":"10","pdvstreet":"Place Pinel","pdvpostcode":"75013","pdvtown":"PARIS","pdvlatitude":48.833642,"pdvlongitude":2.361778,"pdvtypename":"Commerce de proximit\u00e9"}},{"type":"Feature","geometry":{"type":"Point","coordinates":[2.325056,48.832913]},"properties":{"pdvid":"DEP-7-530272","pdvname":"Tabac De La Mairie","pdvtypeid":7,"pdvopeninghours":"Lundi-Dimanche","pdvhousenumber":"165","pdvstreet":"Avenue du Maine","pdvpostcode":"75014","pdvtown":"PARIS","pdvlatitude":48.832913,"pdvlongitude":2.325056,"pdvtypename":"Commerce de proximit\u00e9"}},{"type":"Feature","geometry":{"type":"Point","coordinates":[2.306182,48.831697]},"properties":{"pdvid":"DEP-7-510365","pdvname":"Le Wilson","pdvtypeid":7,"pdvopeninghours":null,"pdvhousenumber":"75","pdvstreet":"Rue Labrouste","pdvpostcode":"75015","pdvtown":"PARIS","pdvlatitude":48.831697,"pdvlongitude":2.306182,"pdvtypename":"Commerce de proximit\u00e9"}},{"type":"Feature","geometry":{"type":"Point","coordinates":[2.411524,48.847548]},"properties":{"pdvid":"DEP-7-520575","pdvname":"Tabac Au Bon Coin","pdvtypeid":7,"pdvopeninghours":null,"pdvhousenumber":"2","pdvstreet":"Boulevard Davout","pdvpostcode":"75020","pdvtown":"PARIS","pdvlatitude":48.847548,"pdvlongitude":2.411524,"pdvtypename":"Commerce de proximit\u00e9"}},{"type":"Feature","geometry":{"type":"Point","coordinates":[2.336652,48.905617]},"properties":{"pdvid":"DEP-7-510637","pdvname":"Tabac Les Rosiers","pdvtypeid":7,"pdvopeninghours":"Lundi-Dimanche","pdvhousenumber":"56","pdvstreet":"Rue des Rosiers","pdvpostcode":"93400","pdvtown":"SAINT-OUEN-SUR-SEINE","pdvlatitude":48.905617,"pdvlongitude":2.336652,"pdvtypename":"Commerce de proximit\u00e9"}},{"type":"Feature","geometry":{"type":"Point","coordinates":[2.32985,48.917684]},"properties":{"pdvid":"DEP-7-510724","pdvname":"Le D\u00f4me","pdvtypeid":7,"pdvopeninghours":"Lundi-Dimanche","pdvhousenumber":"1","pdvstreet":"Rue Albert Dhalenne","pdvpostcode":"93400","pdvtown":"SAINT-OUEN-SUR-SEINE","pdvlatitude":48.917684,"pdvlongitude":2.32985,"pdvtypename":"Commerce de proximit\u00e9"}},{"type":"Feature","geometry":{"type":"Point","coordinates":[2.389573,48.977763]},"properties":{"pdvid":"DEP-7-520415","pdvname":"Le Saint-Sauveur","pdvtypeid":7,"pdvopeninghours":"Lundi-Dimanche","pdvhousenumber":"15","pdvstreet":"Rue Eric de Saint Sauveur","pdvpostcode":"95200","pdvtown":"SARCELLES","pdvlatitude":48.977763,"pdvlongitude":2.389573,"pdvtypename":"Commerce de proximit\u00e9"}},{"type":"Feature","geometry":{"type":"Point","coordinates":[2.338528,48.674223]},"properties":{"pdvid":"DEP-7-530531","pdvname":"Tabac Grand Vaux","pdvtypeid":7,"pdvopeninghours":"Lundi-Dimanche","pdvhousenumber":"1","pdvstreet":"Avenue Henri Ouzilleau","pdvpostcode":"91600","pdvtown":"SAVIGNY-SUR-ORGE","pdvlatitude":48.674223,"pdvlongitude":2.338528,"pdvtypename":"Commerce de proximit\u00e9"}},{"type":"Feature","geometry":{"type":"Point","coordinates":[2.302126,48.784828]},"properties":{"pdvid":"DEP-7-530264","pdvname":"Le Patio","pdvtypeid":7,"pdvopeninghours":null,"pdvhousenumber":"5","pdvstreet":"Rue du Docteur Roux","pdvpostcode":"92330","pdvtown":"SCEAUX","pdvlatitude":48.784828,"pdvlongitude":2.302126,"pdvtypename":"Commerce de proximit\u00e9"}},{"type":"Feature","geometry":{"type":"Point","coordinates":[2.352225,48.857443]},"properties":{"pdvid":"AGE-4-685","pdvname":"Hotel_De_Ville","pdvtypeid":4,"pdvopeninghours":null,"pdvhousenumber":"66","pdvstreet":"Rue de Rivoli","pdvpostcode":"75004","pdvtown":"PARIS","pdvlatitude":48.857443,"pdvlongitude":2.352225,"pdvtypename":"Guichet Navigo"}},{"type":"Feature","geometry":{"type":"Point","coordinates":[2.277636,48.84589]},"properties":{"pdvid":"AGE-4-691","pdvname":"Javel_Andre_Citroen","pdvtypeid":4,"pdvopeninghours":null,"pdvhousenumber":"1","pdvstreet":"Rue de la Convention","pdvpostcode":"75015","pdvtown":"PARIS","pdvlatitude":48.84589,"pdvlongitude":2.277636,"pdvtypename":"Guichet Navigo"}},{"type":"Feature","geometry":{"type":"Point","coordinates":[2.336958,48.839961]},"properties":{"pdvid":"AGE-4-819","pdvname":"Port_Royal","pdvtypeid":4,"pdvopeninghours":null,"pdvhousenumber":"47","pdvstreet":"Avenue de l'Observatoire","pdvpostcode":"75005","pdvtown":"PARIS","pdvlatitude":48.839961,"pdvlongitude":2.336958,"pdvtypename":"Guichet Navigo"}},{"type":"Feature","geometry":{"type":"Point","coordinates":[2.392483,48.888455]},"properties":{"pdvid":"AGE-4-829","pdvname":"Porte_De_Pantin","pdvtypeid":4,"pdvopeninghours":null,"pdvhousenumber":"204","pdvstreet":"Avenue Jean Jaur\u00e8s","pdvpostcode":"75019","pdvtown":"PARIS","pdvlatitude":48.888455,"pdvlongitude":2.392483,"pdvtypename":"Guichet Navigo"}},{"type":"Feature","geometry":{"type":"Point","coordinates":[2.377478,48.815955]},"properties":{"pdvid":"AGE-4-805","pdvname":"Pierre_Et_Marie_Curie","pdvtypeid":4,"pdvopeninghours":null,"pdvhousenumber":"115","pdvstreet":"Avenue Maurice Thorez","pdvpostcode":"94200","pdvtown":"IVRY-SUR-SEINE","pdvlatitude":48.815955,"pdvlongitude":2.377478,"pdvtypename":"Guichet Navigo"}},{"type":"Feature","geometry":{"type":"Point","coordinates":[2.333865,48.866496]},"properties":{"pdvid":"AGE-4-844","pdvname":"Pyramides","pdvtypeid":4,"pdvopeninghours":null,"pdvhousenumber":"21","pdvstreet":"Avenue de l'Op\u00e9ra","pdvpostcode":"75001","pdvtown":"PARIS","pdvlatitude":48.866496,"pdvlongitude":2.333865,"pdvtypename":"Guichet Navigo"}},{"type":"Feature","geometry":{"type":"Point","coordinates":[2.367251,48.846279]},"properties":{"pdvid":"AGE-4-847","pdvname":"Quai_De_La_Rapee","pdvtypeid":4,"pdvopeninghours":null,"pdvhousenumber":"100","pdvstreet":"Quai de la Rap\u00e9e","pdvpostcode":"75012","pdvtown":"PARIS","pdvlatitude":48.846279,"pdvlongitude":2.367251,"pdvtypename":"Guichet Navigo"}},{"type":"Feature","geometry":{"type":"Point","coordinates":[2.385779,48.847386]},"properties":{"pdvid":"AGE-4-855","pdvname":"Reuilly_Diderot","pdvtypeid":4,"pdvopeninghours":null,"pdvhousenumber":"69","pdvstreet":"Boulevard Diderot","pdvpostcode":"75012","pdvtown":"PARIS","pdvlatitude":48.847386,"pdvlongitude":2.385779,"pdvtypename":"Guichet Navigo"}},{"type":"Feature","geometry":{"type":"Point","coordinates":[2.423711,48.855762]},"properties":{"pdvid":"AGE-4-859","pdvname":"Robespierre","pdvtypeid":4,"pdvopeninghours":null,"pdvhousenumber":"163","pdvstreet":"Rue de Paris","pdvpostcode":"93100","pdvtown":"MONTREUIL","pdvlatitude":48.855762,"pdvlongitude":2.423711,"pdvtypename":"Guichet Navigo"}},{"type":"Feature","geometry":{"type":"Point","coordinates":[2.325819,48.887366]},"properties":{"pdvid":"AGE-4-706","pdvname":"La_Fourche","pdvtypeid":4,"pdvopeninghours":null,"pdvhousenumber":"62","pdvstreet":"Avenue de Clichy","pdvpostcode":"75018","pdvtown":"PARIS","pdvlatitude":48.887366,"pdvlongitude":2.325819,"pdvtypename":"Guichet Navigo"}},{"type":"Feature","geometry":{"type":"Point","coordinates":[2.361902,48.810417]},"properties":{"pdvid":"AGE-4-716","pdvname":"Le_Kremlin_Bicetre","pdvtypeid":4,"pdvopeninghours":null,"pdvhousenumber":"92","pdvstreet":"Avenue de Fontainebleau","pdvpostcode":"94270","pdvtown":"LE KREMLIN-BIC\u00caTRE","pdvlatitude":48.810417,"pdvlongitude":2.361902,"pdvtypename":"Guichet Navigo"}},{"type":"Feature","geometry":{"type":"Point","coordinates":[2.285699,48.922601]},"properties":{"pdvid":"AGE-4-722","pdvname":"Les_Agnettes","pdvtypeid":4,"pdvopeninghours":null,"pdvhousenumber":"81","pdvstreet":"Rue Robert Dupont","pdvpostcode":"92600","pdvtown":"ASNI\u00c8RES-SUR-SEINE","pdvlatitude":48.922601,"pdvlongitude":2.285699,"pdvtypename":"Guichet Navigo"}},{"type":"Feature","geometry":{"type":"Point","coordinates":[2.446719,48.802885]},"properties":{"pdvid":"AGE-4-749","pdvname":"Maisons_Alfort_Les_Juilliot","pdvtypeid":4,"pdvopeninghours":null,"pdvhousenumber":"277","pdvstreet":"Avenue du G\u00e9n\u00e9ral Leclerc","pdvpostcode":"94700","pdvtown":"MAISONS-ALFORT","pdvlatitude":48.802885,"pdvlongitude":2.446719,"pdvtypename":"Guichet Navigo"}},{"type":"Feature","geometry":{"type":"Point","coordinates":[2.398705,48.87557]},"properties":{"pdvid":"AGE-4-906","pdvname":"Telegraphe","pdvtypeid":4,"pdvopeninghours":null,"pdvhousenumber":"259","pdvstreet":"Rue de Belleville","pdvpostcode":"75019","pdvtown":"PARIS","pdvlatitude":48.87557,"pdvlongitude":2.398705,"pdvtypename":"Guichet Navigo"}},{"type":"Feature","geometry":{"type":"Point","coordinates":[2.314736,48.856386]},"properties":{"pdvid":"AGE-4-917","pdvname":"Varenne","pdvtypeid":4,"pdvopeninghours":null,"pdvhousenumber":"2b","pdvstreet":"Boulevard des Invalides","pdvpostcode":"75007","pdvtown":"PARIS","pdvlatitude":48.856386,"pdvlongitude":2.314736,"pdvtypename":"Guichet Navigo"}},{"type":"Feature","geometry":{"type":"Point","coordinates":[2.285019,48.870074]},"properties":{"pdvid":"AGE-4-920","pdvname":"Victor_Hugo","pdvtypeid":4,"pdvopeninghours":null,"pdvhousenumber":"6","pdvstreet":"Place Victor Hugo","pdvpostcode":"75016","pdvtown":"PARIS","pdvlatitude":48.870074,"pdvlongitude":2.285019,"pdvtypename":"Guichet Navigo"}},{"type":"Feature","geometry":{"type":"Point","coordinates":[2.327757,48.798557]},"properties":{"pdvid":"AGE-4-1173","pdvname":"Arcueil_Cachan","pdvtypeid":4,"pdvopeninghours":null,"pdvhousenumber":"3","pdvstreet":"Rue de la Gare","pdvpostcode":"94230","pdvtown":"CACHAN","pdvlatitude":48.798557,"pdvlongitude":2.327757,"pdvtypename":"Guichet Navigo"}},{"type":"Feature","geometry":{"type":"Point","coordinates":[2.355967,48.865631]},"properties":{"pdvid":"AGE-4-1175","pdvname":"Arts_Et_Metiers","pdvtypeid":4,"pdvopeninghours":null,"pdvhousenumber":"53","pdvstreet":"Rue de Turbigo","pdvpostcode":"75003","pdvtown":"PARIS","pdvlatitude":48.865631,"pdvlongitude":2.355967,"pdvtypename":"Guichet Navigo"}},{"type":"Feature","geometry":{"type":"Point","coordinates":[2.320501,48.861565]},"properties":{"pdvid":"AGE-4-1176","pdvname":"Assemblee_Nationale","pdvtypeid":4,"pdvopeninghours":null,"pdvhousenumber":"284","pdvstreet":"Boulevard Saint-Germain","pdvpostcode":"75007","pdvtown":"PARIS","pdvlatitude":48.861565,"pdvlongitude":2.320501,"pdvtypename":"Guichet Navigo"}},{"type":"Feature","geometry":{"type":"Point","coordinates":[2.311299,48.88274]},"properties":{"pdvid":"AGE-4-753","pdvname":"Malesherbes","pdvtypeid":4,"pdvopeninghours":null,"pdvhousenumber":"12","pdvstreet":"Place du G\u00e9n\u00e9ral Catroux","pdvpostcode":"75017","pdvtown":"PARIS","pdvlatitude":48.88274,"pdvlongitude":2.311299,"pdvtypename":"Guichet Navigo"}},{"type":"Feature","geometry":{"type":"Point","coordinates":[2.261921,48.845064]},"properties":{"pdvid":"AGE-4-763","pdvname":"Michel_Ange_Molitor","pdvtypeid":4,"pdvopeninghours":null,"pdvhousenumber":"37","pdvstreet":"Rue Michel-Ange","pdvpostcode":"75016","pdvtown":"PARIS","pdvlatitude":48.845064,"pdvlongitude":2.261921,"pdvtypename":"Guichet Navigo"}},{"type":"Feature","geometry":{"type":"Point","coordinates":[2.367037,48.826993]},"properties":{"pdvid":"AGE-4-788","pdvname":"Olympiades","pdvtypeid":4,"pdvopeninghours":null,"pdvhousenumber":"89","pdvstreet":"Rue de Tolbiac","pdvpostcode":"75013","pdvtown":"PARIS","pdvlatitude":48.826993,"pdvlongitude":2.367037,"pdvtypename":"Guichet Navigo"}},{"type":"Feature","geometry":{"type":"Point","coordinates":[2.246232,48.71797]},"properties":{"pdvid":"AGE-4-793","pdvname":"Palaiseau","pdvtypeid":4,"pdvopeninghours":null,"pdvhousenumber":"51","pdvstreet":"Boulevard Joseph Bara","pdvpostcode":"91120","pdvtown":"PALAISEAU","pdvlatitude":48.71797,"pdvlongitude":2.246232,"pdvtypename":"Guichet Navigo"}},{"type":"Feature","geometry":{"type":"Point","coordinates":[2.236843,48.707849]},"properties":{"pdvid":"AGE-4-794","pdvname":"Palaiseau_Villebon","pdvtypeid":4,"pdvopeninghours":null,"pdvhousenumber":"11a","pdvstreet":"Boulevard de Loz\u00e8re","pdvpostcode":"91120","pdvtown":"PALAISEAU","pdvlatitude":48.707849,"pdvlongitude":2.236843,"pdvtypename":"Guichet Navigo"}},{"type":"Feature","geometry":{"type":"Point","coordinates":[2.317833,48.833929]},"properties":{"pdvid":"AGE-4-802","pdvname":"Pernety","pdvtypeid":4,"pdvopeninghours":null,"pdvhousenumber":"72","pdvstreet":"Rue Raymond Losserand","pdvpostcode":"75014","pdvtown":"PARIS","pdvlatitude":48.833929,"pdvlongitude":2.317833,"pdvtypename":"Guichet Navigo"}},{"type":"Feature","geometry":{"type":"Point","coordinates":[2.298186,48.838279]},"properties":{"pdvid":"DEP-7-540480","pdvname":"Le Brazza","pdvtypeid":7,"pdvopeninghours":"Lundi-Dimanche","pdvhousenumber":"296","pdvstreet":"Rue de Vaugirard","pdvpostcode":"75015","pdvtown":"PARIS","pdvlatitude":48.838279,"pdvlongitude":2.298186,"pdvtypename":"Commerce de proximit\u00e9"}},{"type":"Feature","geometry":{"type":"Point","coordinates":[2.277586,48.856191]},"properties":{"pdvid":"DEP-7-510449","pdvname":"Le Diplomate","pdvtypeid":7,"pdvopeninghours":null,"pdvhousenumber":"15","pdvstreet":"Rue Singer","pdvpostcode":"75016","pdvtown":"PARIS","pdvlatitude":48.856191,"pdvlongitude":2.277586,"pdvtypename":"Commerce de proximit\u00e9"}},{"type":"Feature","geometry":{"type":"Point","coordinates":[2.339991,48.8955]},"properties":{"pdvid":"DEP-7-510592","pdvname":"Tabac 68","pdvtypeid":7,"pdvopeninghours":"Lundi-Dimanche","pdvhousenumber":"68","pdvstreet":"Rue du Poteau","pdvpostcode":"75018","pdvtown":"PARIS","pdvlatitude":48.8955,"pdvlongitude":2.339991,"pdvtypename":"Commerce de proximit\u00e9"}},{"type":"Feature","geometry":{"type":"Point","coordinates":[2.360809,48.884655]},"properties":{"pdvid":"DEP-7-510619","pdvname":"La Royale","pdvtypeid":7,"pdvopeninghours":null,"pdvhousenumber":"2","pdvstreet":"Place de la Chapelle","pdvpostcode":"75018","pdvtown":"PARIS","pdvlatitude":48.884655,"pdvlongitude":2.360809,"pdvtypename":"Commerce de proximit\u00e9"}},{"type":"Feature","geometry":{"type":"Point","coordinates":[2.346564,48.888605]},"properties":{"pdvid":"DEP-7-510659","pdvname":"Le Calumet","pdvtypeid":7,"pdvopeninghours":"Lundi-Dimanche","pdvhousenumber":"29","pdvstreet":"Rue Ramey","pdvpostcode":"75018","pdvtown":"PARIS","pdvlatitude":48.888605,"pdvlongitude":2.346564,"pdvtypename":"Commerce de proximit\u00e9"}},{"type":"Feature","geometry":{"type":"Point","coordinates":[2.358401,48.957902]},"properties":{"pdvid":"DEP-7-520112","pdvname":"Le Fu\u00e9go","pdvtypeid":7,"pdvopeninghours":"Lundi-Dimanche","pdvhousenumber":"80","pdvstreet":"Avenue L\u00e9nine (Pierrefitte-sur-Seine)","pdvpostcode":"93380","pdvtown":"SAINT-DENIS","pdvlatitude":48.957902,"pdvlongitude":2.358401,"pdvtypename":"Commerce de proximit\u00e9"}},{"type":"Feature","geometry":{"type":"Point","coordinates":[2.245416,48.884001]},"properties":{"pdvid":"DEP-7-510580","pdvname":"L'Orangerie","pdvtypeid":7,"pdvopeninghours":"Lundi-Dimanche","pdvhousenumber":"33","pdvstreet":"Rue Jean Jaur\u00e8s","pdvpostcode":"92800","pdvtown":"PUTEAUX","pdvlatitude":48.884001,"pdvlongitude":2.245416,"pdvtypename":"Commerce de proximit\u00e9"}},{"type":"Feature","geometry":{"type":"Point","coordinates":[2.181882,48.87381]},"properties":{"pdvid":"DEP-7-510731","pdvname":"Le Richelieu","pdvtypeid":7,"pdvopeninghours":"Lundi-Dimanche","pdvhousenumber":"53","pdvstreet":"Rue Haute","pdvpostcode":"92500","pdvtown":"RUEIL-MALMAISON","pdvlatitude":48.87381,"pdvlongitude":2.181882,"pdvtypename":"Commerce de proximit\u00e9"}},{"type":"Feature","geometry":{"type":"Point","coordinates":[2.358232,48.935725]},"properties":{"pdvid":"DEP-7-540176","pdvname":"Le Khedive","pdvtypeid":7,"pdvopeninghours":"Lundi-Dimanche","pdvhousenumber":"3","pdvstreet":"Place Victor Hugo","pdvpostcode":"93200","pdvtown":"SAINT-DENIS","pdvlatitude":48.935725,"pdvlongitude":2.358232,"pdvtypename":"Commerce de proximit\u00e9"}},{"type":"Feature","geometry":{"type":"Point","coordinates":[2.511027,48.933571]},"properties":{"pdvid":"DEP-7-520707","pdvname":"Rougemont Presse","pdvtypeid":7,"pdvopeninghours":"Lundi-Dimanche","pdvhousenumber":"2","pdvstreet":"Rue Pierre Brossolette","pdvpostcode":"93270","pdvtown":"SEVRAN","pdvlatitude":48.933571,"pdvlongitude":2.511027,"pdvtypename":"Commerce de proximit\u00e9"}},{"type":"Feature","geometry":{"type":"Point","coordinates":[1.847837,48.972241]},"properties":{"pdvid":"AGE-10-937","pdvname":"Aubergenville","pdvtypeid":10,"pdvopeninghours":null,"pdvhousenumber":"5","pdvstreet":"Rue des Brissettes","pdvpostcode":"78410","pdvtown":"AUBERGENVILLE","pdvlatitude":48.972241,"pdvlongitude":1.847837,"pdvtypename":"Guichet Navigo"}},{"type":"Feature","geometry":{"type":"Point","coordinates":[2.582648,48.874641]},"properties":{"pdvid":"AGE-10-966","pdvname":"Chelles - Gournay","pdvtypeid":10,"pdvopeninghours":null,"pdvhousenumber":"6","pdvstreet":"Place Gasnier Guy","pdvpostcode":"77500","pdvtown":"CHELLES","pdvlatitude":48.874641,"pdvlongitude":2.582648,"pdvtypename":"Guichet Navigo"}},{"type":"Feature","geometry":{"type":"Point","coordinates":[2.409563,48.766152]},"properties":{"pdvid":"AGE-10-967","pdvname":"Choisy-Le-Roi","pdvtypeid":10,"pdvopeninghours":null,"pdvhousenumber":"1","pdvstreet":"Avenue Pablo Picasso","pdvpostcode":"94600","pdvtown":"CHOISY-LE-ROI","pdvlatitude":48.766152,"pdvlongitude":2.409563,"pdvtypename":"Guichet Navigo"}},{"type":"Feature","geometry":{"type":"Point","coordinates":[2.298265,48.896815]},"properties":{"pdvid":"AGE-10-969","pdvname":"Clichy - Levallois","pdvtypeid":10,"pdvopeninghours":null,"pdvhousenumber":"5","pdvstreet":"Place du 8 Mai 1945","pdvpostcode":"92300","pdvtown":"LEVALLOIS-PERRET","pdvlatitude":48.896815,"pdvlongitude":2.298265,"pdvtypename":"Guichet Navigo"}},{"type":"Feature","geometry":{"type":"Point","coordinates":[2.259482,48.923744]},"properties":{"pdvid":"AGE-10-970","pdvname":"Colombes","pdvtypeid":10,"pdvopeninghours":null,"pdvhousenumber":"269","pdvstreet":"Rue Saint-Denis","pdvpostcode":"92700","pdvtown":"COLOMBES","pdvlatitude":48.923744,"pdvlongitude":2.259482,"pdvtypename":"Guichet Navigo"}},{"type":"Feature","geometry":{"type":"Point","coordinates":[2.428854,48.626377]},"properties":{"pdvid":"AGE-10-992","pdvname":"\u00c9vry - Courcouronnes","pdvtypeid":10,"pdvopeninghours":null,"pdvhousenumber":"23","pdvstreet":"All\u00e9e Jacquard","pdvpostcode":"91000","pdvtown":"\u00c9VRY-COURCOURONNES","pdvlatitude":48.626377,"pdvlongitude":2.428854,"pdvtypename":"Guichet Navigo"}},{"type":"Feature","geometry":{"type":"Point","coordinates":[2.38929,48.977294]},"properties":{"pdvid":"AGE-10-1008","pdvname":"Garges - Sarcelles","pdvtypeid":10,"pdvopeninghours":null,"pdvhousenumber":"9","pdvstreet":"Rue Eric de Saint Sauveur","pdvpostcode":"95200","pdvtown":"SARCELLES","pdvlatitude":48.977294,"pdvlongitude":2.38929,"pdvtypename":"Guichet Navigo"}},{"type":"Feature","geometry":{"type":"Point","coordinates":[2.476978,49.03282]},"properties":{"pdvid":"AGE-10-1045","pdvname":"Les Noues","pdvtypeid":10,"pdvopeninghours":null,"pdvhousenumber":"27","pdvstreet":"Rue des Bergeronnettes","pdvpostcode":"95190","pdvtown":"GOUSSAINVILLE","pdvlatitude":49.03282,"pdvlongitude":2.476978,"pdvtypename":"Guichet Navigo"}},{"type":"Feature","geometry":{"type":"Point","coordinates":[2.227009,48.89708]},"properties":{"pdvid":"AGE-10-1501","pdvname":"Nanterre La Folie","pdvtypeid":10,"pdvopeninghours":null,"pdvhousenumber":"2001","pdvstreet":"Boulevard de la D\u00e9fense","pdvpostcode":"92000","pdvtown":"NANTERRE","pdvlatitude":48.89708,"pdvlongitude":2.227009,"pdvtypename":"Guichet Navigo"}},{"type":"Feature","geometry":{"type":"Point","coordinates":[2.077078,49.01449]},"properties":{"pdvid":"AGE-10-1073","pdvname":"Neuville Universit\u00e9","pdvtypeid":10,"pdvopeninghours":null,"pdvhousenumber":"12","pdvstreet":"Mail Gay Lussac","pdvpostcode":"95000","pdvtown":"NEUVILLE-SUR-OISE","pdvlatitude":49.01449,"pdvlongitude":2.077078,"pdvtypename":"Guichet Navigo"}},{"type":"Feature","geometry":{"type":"Point","coordinates":[2.041378,48.932912]},"properties":{"pdvid":"AGE-10-1088","pdvname":"Poissy","pdvtypeid":10,"pdvopeninghours":null,"pdvhousenumber":"20bis","pdvstreet":"Place Georges Pompidou","pdvpostcode":"78300","pdvtown":"POISSY","pdvlatitude":48.932912,"pdvlongitude":2.041378,"pdvtypename":"Guichet Navigo"}},{"type":"Feature","geometry":{"type":"Point","coordinates":[1.98202,48.981283]},"properties":{"pdvid":"AGE-10-1136","pdvname":"Vernouillet - Verneuil","pdvtypeid":10,"pdvopeninghours":null,"pdvhousenumber":"31","pdvstreet":"Avenue du Chemin de Fer","pdvpostcode":"78480","pdvtown":"VERNEUIL-SUR-SEINE","pdvlatitude":48.981283,"pdvlongitude":1.98202,"pdvtypename":"Guichet Navigo"}},{"type":"Feature","geometry":{"type":"Point","coordinates":[2.135999,48.796117]},"properties":{"pdvid":"AGE-10-1137","pdvname":"Versailles Chantiers","pdvtypeid":10,"pdvopeninghours":null,"pdvhousenumber":"4","pdvstreet":"Rue de l\u2019Abb\u00e9 Rousseau","pdvpostcode":"78000","pdvtown":"VERSAILLES","pdvlatitude":48.796117,"pdvlongitude":2.135999,"pdvtypename":"Guichet Navigo"}},{"type":"Feature","geometry":{"type":"Point","coordinates":[2.358269,48.877553]},"properties":{"pdvid":"AGE-11-1001","pdvname":"Gare De L'Est","pdvtypeid":11,"pdvopeninghours":null,"pdvhousenumber":"16","pdvstreet":"Rue d'Alsace","pdvpostcode":"75010","pdvtown":"PARIS","pdvlatitude":48.877553,"pdvlongitude":2.358269,"pdvtypename":"Guichet Navigo"}},{"type":"Feature","geometry":{"type":"Point","coordinates":[2.384147,48.689682]},"properties":{"pdvid":"AGE-11-1022","pdvname":"Juvisy","pdvtypeid":11,"pdvopeninghours":null,"pdvhousenumber":"6","pdvstreet":"Rue Georges Jacques Danton","pdvpostcode":"91260","pdvtown":"JUVISY-SUR-ORGE","pdvlatitude":48.689682,"pdvlongitude":2.384147,"pdvtypename":"Guichet Navigo"}},{"type":"Feature","geometry":{"type":"Point","coordinates":[1.716027,48.983681]},"properties":{"pdvid":"AGE-11-1052","pdvname":"Mantes-La-Jolie","pdvtypeid":11,"pdvopeninghours":null,"pdvhousenumber":"2bis","pdvstreet":"Boulevard Calmette","pdvpostcode":"78200","pdvtown":"MANTES-LA-JOLIE","pdvlatitude":48.983681,"pdvlongitude":1.716027,"pdvtypename":"Guichet Navigo"}},{"type":"Feature","geometry":{"type":"Point","coordinates":[2.302557,48.954094]},"properties":{"pdvid":"AGE-11-1390","pdvname":"Epinay Sur Seine","pdvtypeid":11,"pdvopeninghours":null,"pdvhousenumber":"2","pdvstreet":"Place de la Nouvelle Gare","pdvpostcode":"93800","pdvtown":"\u00c9PINAY-SUR-SEINE","pdvlatitude":48.954094,"pdvlongitude":2.302557,"pdvtypename":"Guichet Navigo"}},{"type":"Feature","geometry":{"type":"Point","coordinates":[2.131026,48.804498]},"properties":{"pdvid":"AGE-1-1341","pdvname":"Versailles","pdvtypeid":1,"pdvopeninghours":null,"pdvhousenumber":"18","pdvstreet":"Avenue de l\u2019Europe","pdvpostcode":"78000","pdvtown":"VERSAILLES","pdvlatitude":48.804498,"pdvlongitude":2.131026,"pdvtypename":"Guichet Navigo"}},{"type":"Feature","geometry":{"type":"Point","coordinates":[2.425154,48.895561]},"properties":{"pdvid":"AGE-3-1195","pdvname":"Bobig_Pantin_Raymond_Queneau","pdvtypeid":3,"pdvopeninghours":null,"pdvhousenumber":"3","pdvstreet":"Rue de Paris","pdvpostcode":"93000","pdvtown":"BOBIGNY","pdvlatitude":48.895561,"pdvlongitude":2.425154,"pdvtypename":"Guichet Navigo"}},{"type":"Feature","geometry":{"type":"Point","coordinates":[2.509901,48.806813]},"properties":{"pdvid":"AGE-3-1222","pdvname":"Champigny","pdvtypeid":3,"pdvopeninghours":null,"pdvhousenumber":"87","pdvstreet":"Rue Lafayette","pdvpostcode":"94210","pdvtown":"SAINT-MAUR-DES-FOSS\u00c9S","pdvlatitude":48.806813,"pdvlongitude":2.509901,"pdvtypename":"Guichet Navigo"}},{"type":"Feature","geometry":{"type":"Point","coordinates":[2.333317,48.873003]},"properties":{"pdvid":"AGE-3-1240","pdvname":"Chaussee_D_Antin_La_Fayette","pdvtypeid":3,"pdvopeninghours":null,"pdvhousenumber":null,"pdvstreet":"Place Theophile Bader","pdvpostcode":"75009","pdvtown":"PARIS","pdvlatitude":48.873003,"pdvlongitude":2.333317,"pdvtypename":"Guichet Navigo"}},{"type":"Feature","geometry":{"type":"Point","coordinates":[2.458778,48.780141]},"properties":{"pdvid":"AGE-3-1259","pdvname":"Creteil_Prefecture","pdvtypeid":3,"pdvopeninghours":null,"pdvhousenumber":null,"pdvstreet":"Avenue des Compagnons de la Lib\u00e9ration","pdvpostcode":"94000","pdvtown":"CR\u00c9TEIL","pdvlatitude":48.780141,"pdvlongitude":2.458778,"pdvtypename":"Guichet Navigo"}},{"type":"Feature","geometry":{"type":"Point","coordinates":[2.343213,48.884444]},"properties":{"pdvid":"AGE-3-1292","pdvname":"Funiculaire","pdvtypeid":3,"pdvopeninghours":null,"pdvhousenumber":"12","pdvstreet":"Place Saint-Pierre","pdvpostcode":"75018","pdvtown":"PARIS","pdvlatitude":48.884444,"pdvlongitude":2.343213,"pdvtypename":"Guichet Navigo"}},{"type":"Feature","geometry":{"type":"Point","coordinates":[2.34837,48.87043]},"properties":{"pdvid":"AGE-4-1200","pdvname":"Bonne_Nouvelle","pdvtypeid":4,"pdvopeninghours":null,"pdvhousenumber":"37","pdvstreet":"Boulevard de Bonne Nouvelle","pdvpostcode":"75002","pdvtown":"PARIS","pdvlatitude":48.87043,"pdvlongitude":2.34837,"pdvtypename":"Guichet Navigo"}},{"type":"Feature","geometry":{"type":"Point","coordinates":[2.401457,48.851447]},"properties":{"pdvid":"AGE-4-1214","pdvname":"Buzenval","pdvtypeid":4,"pdvopeninghours":null,"pdvhousenumber":"45","pdvstreet":"Rue de Buzenval","pdvpostcode":"75020","pdvtown":"PARIS","pdvlatitude":48.851447,"pdvlongitude":2.401457,"pdvtypename":"Guichet Navigo"}},{"type":"Feature","geometry":{"type":"Point","coordinates":[2.266908,48.845069]},"properties":{"pdvid":"AGE-4-1224","pdvname":"Chardon_Lagache","pdvtypeid":4,"pdvopeninghours":null,"pdvhousenumber":"11","pdvstreet":"Rue Chardon-Lagache","pdvpostcode":"75016","pdvtown":"PARIS","pdvlatitude":48.845069,"pdvlongitude":2.266908,"pdvtypename":"Guichet Navigo"}},{"type":"Feature","geometry":{"type":"Point","coordinates":[2.413982,48.821284]},"properties":{"pdvid":"AGE-4-1225","pdvname":"Charenton_Ecoles","pdvtypeid":4,"pdvopeninghours":null,"pdvhousenumber":"75","pdvstreet":"Rue de Paris","pdvpostcode":"94220","pdvtown":"CHARENTON-LE-PONT","pdvlatitude":48.821284,"pdvlongitude":2.413982,"pdvtypename":"Guichet Navigo"}},{"type":"Feature","geometry":{"type":"Point","coordinates":[2.385072,48.854566]},"properties":{"pdvid":"AGE-4-1229","pdvname":"Charonne","pdvtypeid":4,"pdvopeninghours":null,"pdvhousenumber":"106","pdvstreet":"Rue de Charonne","pdvpostcode":"75011","pdvtown":"PARIS","pdvlatitude":48.854566,"pdvlongitude":2.385072,"pdvtypename":"Guichet Navigo"}},{"type":"Feature","geometry":{"type":"Point","coordinates":[2.430279,48.626706]},"properties":{"pdvid":"DEP-2-600011","pdvname":"Tabac De La Gare","pdvtypeid":2,"pdvopeninghours":"Lundi-Samedi","pdvhousenumber":"24","pdvstreet":"Cours Blaise Pascal","pdvpostcode":"91000","pdvtown":"\u00c9VRY-COURCOURONNES","pdvlatitude":48.626706,"pdvlongitude":2.430279,"pdvtypename":"Commerce de proximit\u00e9"}},{"type":"Feature","geometry":{"type":"Point","coordinates":[2.491027,48.751351]},"properties":{"pdvid":"DEP-2-600032","pdvname":"Tabac Le Marigny","pdvtypeid":2,"pdvopeninghours":null,"pdvhousenumber":"2","pdvstreet":"Avenue du Pr\u00e9sident Wilson","pdvpostcode":"94450","pdvtown":"LIMEIL-BR\u00c9VANNES","pdvlatitude":48.751351,"pdvlongitude":2.491027,"pdvtypename":"Commerce de proximit\u00e9"}},{"type":"Feature","geometry":{"type":"Point","coordinates":[2.505811,48.698915]},"properties":{"pdvid":"DEP-2-600038","pdvname":"Le Passage","pdvtypeid":2,"pdvopeninghours":null,"pdvhousenumber":"27","pdvstreet":"Rue de la Gare","pdvpostcode":"91800","pdvtown":"BRUNOY","pdvlatitude":48.698915,"pdvlongitude":2.505811,"pdvtypename":"Commerce de proximit\u00e9"}},{"type":"Feature","geometry":{"type":"Point","coordinates":[2.556042,48.946715]},"properties":{"pdvid":"DEP-2-600065","pdvname":"Tabac Presse","pdvtypeid":2,"pdvopeninghours":null,"pdvhousenumber":"2","pdvstreet":"Place Pierre B\u00e9r\u00e9govoy","pdvpostcode":"93420","pdvtown":"VILLEPINTE","pdvlatitude":48.946715,"pdvlongitude":2.556042,"pdvtypename":"Commerce de proximit\u00e9"}},{"type":"Feature","geometry":{"type":"Point","coordinates":[2.160363,48.435964]},"properties":{"pdvid":"DEP-2-601431","pdvname":"Le Khedive","pdvtypeid":2,"pdvopeninghours":"Lundi-Samedi","pdvhousenumber":"32","pdvstreet":"Rue Louis Moreau","pdvpostcode":"91150","pdvtown":"\u00c9TAMPES","pdvlatitude":48.435964,"pdvlongitude":2.160363,"pdvtypename":"Commerce de proximit\u00e9"}},{"type":"Feature","geometry":{"type":"Point","coordinates":[2.765139,48.740272]},"properties":{"pdvid":"DEP-2-601442","pdvname":"Tabacado","pdvtypeid":2,"pdvopeninghours":null,"pdvhousenumber":"1","pdvstreet":"Rue de Paris","pdvpostcode":"77220","pdvtown":"TOURNAN-EN-BRIE","pdvlatitude":48.740272,"pdvlongitude":2.765139,"pdvtypename":"Commerce de proximit\u00e9"}},{"type":"Feature","geometry":{"type":"Point","coordinates":[2.057723,48.990063]},"properties":{"pdvid":"DEP-2-601353","pdvname":"Tabac Presse Andresy","pdvtypeid":2,"pdvopeninghours":"Lundi-Samedi","pdvhousenumber":"55","pdvstreet":"Avenue des Robaresses","pdvpostcode":"78570","pdvtown":"ANDR\u00c9SY","pdvlatitude":48.990063,"pdvlongitude":2.057723,"pdvtypename":"Commerce de proximit\u00e9"}},{"type":"Feature","geometry":{"type":"Point","coordinates":[2.003966,48.979787]},"properties":{"pdvid":"DEP-2-601356","pdvname":"Le Fontenoy","pdvtypeid":2,"pdvopeninghours":"Lundi-Samedi","pdvhousenumber":"160","pdvstreet":"Rue Paul Doumer","pdvpostcode":"78510","pdvtown":"TRIEL-SUR-SEINE","pdvlatitude":48.979787,"pdvlongitude":2.003966,"pdvtypename":"Commerce de proximit\u00e9"}},{"type":"Feature","geometry":{"type":"Point","coordinates":[1.975875,48.91987]},"properties":{"pdvid":"DEP-2-601361","pdvname":"Le Viking","pdvtypeid":2,"pdvopeninghours":"Mardi-Dimanche","pdvhousenumber":"6","pdvstreet":"Avenue du Marechal Foch","pdvpostcode":"78630","pdvtown":"ORGEVAL","pdvlatitude":48.91987,"pdvlongitude":1.975875,"pdvtypename":"Commerce de proximit\u00e9"}},{"type":"Feature","geometry":{"type":"Point","coordinates":[2.739361,48.856459]},"properties":{"pdvid":"DEP-2-601371","pdvname":"Les Cigares Du Pharaon","pdvtypeid":2,"pdvopeninghours":null,"pdvhousenumber":"60b","pdvstreet":"Avenue de la Jonchere","pdvpostcode":"77600","pdvtown":"CHANTELOUP-EN-BRIE","pdvlatitude":48.856459,"pdvlongitude":2.739361,"pdvtypename":"Commerce de proximit\u00e9"}},{"type":"Feature","geometry":{"type":"Point","coordinates":[2.084401,48.723973]},"properties":{"pdvid":"DEP-2-601385","pdvname":"Defosse Cyril","pdvtypeid":2,"pdvopeninghours":null,"pdvhousenumber":null,"pdvstreet":"Rue Vincent Van Gogh","pdvpostcode":"78114","pdvtown":"MAGNY-LES-HAMEAUX","pdvlatitude":48.723973,"pdvlongitude":2.084401,"pdvtypename":"Commerce de proximit\u00e9"}},{"type":"Feature","geometry":{"type":"Point","coordinates":[2.039342,48.905848]},"properties":{"pdvid":"DEP-2-601390","pdvname":"Chambourcy Presse","pdvtypeid":2,"pdvopeninghours":"Mardi-Dimanche","pdvhousenumber":"1","pdvstreet":"Place de la Mairie","pdvpostcode":"78240","pdvtown":"CHAMBOURCY","pdvlatitude":48.905848,"pdvlongitude":2.039342,"pdvtypename":"Commerce de proximit\u00e9"}},{"type":"Feature","geometry":{"type":"Point","coordinates":[2.560084,48.628257]},"properties":{"pdvid":"DEP-2-601391","pdvname":"Tabac Civette De Medicis","pdvtypeid":2,"pdvopeninghours":null,"pdvhousenumber":"122","pdvstreet":"Avenue Pierre Point","pdvpostcode":"77127","pdvtown":"LIEUSAINT","pdvlatitude":48.628257,"pdvlongitude":2.560084,"pdvtypename":"Commerce de proximit\u00e9"}},{"type":"Feature","geometry":{"type":"Point","coordinates":[2.453532,48.740227]},"properties":{"pdvid":"DEP-2-601397","pdvname":"Tabac Des Hbm","pdvtypeid":2,"pdvopeninghours":null,"pdvhousenumber":"4","pdvstreet":"Rue de Bricquebec","pdvpostcode":"94190","pdvtown":"VILLENEUVE-SAINT-GEORGES","pdvlatitude":48.740227,"pdvlongitude":2.453532,"pdvtypename":"Commerce de proximit\u00e9"}},{"type":"Feature","geometry":{"type":"Point","coordinates":[2.894019,48.950428]},"properties":{"pdvid":"DEP-2-601399","pdvname":"Tabac Au Papyrus","pdvtypeid":2,"pdvopeninghours":null,"pdvhousenumber":"43","pdvstreet":"Avenue Henri Dunant","pdvpostcode":"77100","pdvtown":"MEAUX","pdvlatitude":48.950428,"pdvlongitude":2.894019,"pdvtypename":"Commerce de proximit\u00e9"}},{"type":"Feature","geometry":{"type":"Point","coordinates":[3.129531,48.95037]},"properties":{"pdvid":"DEP-2-601406","pdvname":"La Ferte Presse","pdvtypeid":2,"pdvopeninghours":null,"pdvhousenumber":"2","pdvstreet":"Place de l\u2019Hotel de Ville","pdvpostcode":"77260","pdvtown":"LA FERT\u00c9-SOUS-JOUARRE","pdvlatitude":48.95037,"pdvlongitude":3.129531,"pdvtypename":"Commerce de proximit\u00e9"}},{"type":"Feature","geometry":{"type":"Point","coordinates":[2.101776,48.887213]},"properties":{"pdvid":"DEP-2-601414","pdvname":"Le Relais Du Monte Cristo","pdvtypeid":2,"pdvopeninghours":"Mardi-Dimanche","pdvhousenumber":"2","pdvstreet":"Avenue du G\u00e9n\u00e9ral Leclerc","pdvpostcode":"78230","pdvtown":"LE PECQ","pdvlatitude":48.887213,"pdvlongitude":2.101776,"pdvtypename":"Commerce de proximit\u00e9"}},{"type":"Feature","geometry":{"type":"Point","coordinates":[2.175444,48.675764]},"properties":{"pdvid":"DEP-2-601423","pdvname":"Tabac La Havane Cc Ulis 2","pdvtypeid":2,"pdvopeninghours":"Lundi-Samedi","pdvhousenumber":null,"pdvstreet":"Les Ulis 2","pdvpostcode":"91940","pdvtown":"LES ULIS","pdvlatitude":48.675764,"pdvlongitude":2.175444,"pdvtypename":"Commerce de proximit\u00e9"}},{"type":"Feature","geometry":{"type":"Point","coordinates":[2.473489,48.751803]},"properties":{"pdvid":"DEP-2-601425","pdvname":"Tabac Arthur Rimbaud","pdvtypeid":2,"pdvopeninghours":null,"pdvhousenumber":"10","pdvstreet":"Place Arthur Rimbaud","pdvpostcode":"94450","pdvtown":"LIMEIL-BR\u00c9VANNES","pdvlatitude":48.751803,"pdvlongitude":2.473489,"pdvtypename":"Commerce de proximit\u00e9"}},{"type":"Feature","geometry":{"type":"Point","coordinates":[2.700992,48.404487]},"properties":{"pdvid":"DEP-2-600146","pdvname":"Tabac De La Mairie","pdvtypeid":2,"pdvopeninghours":null,"pdvhousenumber":"28","pdvstreet":"Rue Grande","pdvpostcode":"77300","pdvtown":"FONTAINEBLEAU","pdvlatitude":48.404487,"pdvlongitude":2.700992,"pdvtypename":"Commerce de proximit\u00e9"}},{"type":"Feature","geometry":{"type":"Point","coordinates":[1.971978,48.792507]},"properties":{"pdvid":"DEP-2-600163","pdvname":"Pezet Philippe","pdvtypeid":2,"pdvopeninghours":null,"pdvhousenumber":"9","pdvstreet":"Rue d'Ath\u00e8nes","pdvpostcode":"78990","pdvtown":"\u00c9LANCOURT","pdvlatitude":48.792507,"pdvlongitude":1.971978,"pdvtypename":"Commerce de proximit\u00e9"}},{"type":"Feature","geometry":{"type":"Point","coordinates":[2.101574,48.718624]},"properties":{"pdvid":"DEP-2-600172","pdvname":"Herreruela","pdvtypeid":2,"pdvopeninghours":"Lundi-Samedi","pdvhousenumber":"43","pdvstreet":"Avenue de Chevincourt","pdvpostcode":"78114","pdvtown":"MAGNY-LES-HAMEAUX","pdvlatitude":48.718624,"pdvlongitude":2.101574,"pdvtypename":"Commerce de proximit\u00e9"}},{"type":"Feature","geometry":{"type":"Point","coordinates":[2.078497,48.766971]},"properties":{"pdvid":"DEP-2-600178","pdvname":"Chou Anthony","pdvtypeid":2,"pdvopeninghours":null,"pdvhousenumber":"36","pdvstreet":"Rue Georges Haussmann","pdvpostcode":"78280","pdvtown":"GUYANCOURT","pdvlatitude":48.766971,"pdvlongitude":2.078497,"pdvtypename":"Commerce de proximit\u00e9"}},{"type":"Feature","geometry":{"type":"Point","coordinates":[2.230639,48.990367]},"properties":{"pdvid":"DEP-2-600201","pdvname":"Tabac Presse Cadet De Vaux","pdvtypeid":2,"pdvopeninghours":"Lundi-Samedi","pdvhousenumber":"3","pdvstreet":"Avenue Carnot","pdvpostcode":"95130","pdvtown":"FRANCONVILLE","pdvlatitude":48.990367,"pdvlongitude":2.230639,"pdvtypename":"Commerce de proximit\u00e9"}},{"type":"Feature","geometry":{"type":"Point","coordinates":[1.786892,49.154501]},"properties":{"pdvid":"DEP-2-600225","pdvname":"Le Balto","pdvtypeid":2,"pdvopeninghours":null,"pdvhousenumber":"30","pdvstreet":"Rue de Paris","pdvpostcode":"95420","pdvtown":"MAGNY-EN-VEXIN","pdvlatitude":49.154501,"pdvlongitude":1.786892,"pdvtypename":"Commerce de proximit\u00e9"}},{"type":"Feature","geometry":{"type":"Point","coordinates":[1.681621,48.966823]},"properties":{"pdvid":"DEP-2-600231","pdvname":"Au Bon Accueil","pdvtypeid":2,"pdvopeninghours":null,"pdvhousenumber":"33","pdvstreet":"Avenue de l'Europe","pdvpostcode":"78200","pdvtown":"MAGNANVILLE","pdvlatitude":48.966823,"pdvlongitude":1.681621,"pdvtypename":"Commerce de proximit\u00e9"}},{"type":"Feature","geometry":{"type":"Point","coordinates":[2.256485,48.985826]},"properties":{"pdvid":"DEP-2-600247","pdvname":"Presse Tabac","pdvtypeid":2,"pdvopeninghours":null,"pdvhousenumber":"54","pdvstreet":"Rue de Stalingrad","pdvpostcode":"95120","pdvtown":"ERMONT","pdvlatitude":48.985826,"pdvlongitude":2.256485,"pdvtypename":"Commerce de proximit\u00e9"}},{"type":"Feature","geometry":{"type":"Point","coordinates":[2.153154,48.837289]},"properties":{"pdvid":"DEP-2-600252","pdvname":"L'Escale","pdvtypeid":2,"pdvopeninghours":null,"pdvhousenumber":"105","pdvstreet":"Boulevard de la R\u00e9publique","pdvpostcode":"92420","pdvtown":"VAUCRESSON","pdvlatitude":48.837289,"pdvlongitude":2.153154,"pdvtypename":"Commerce de proximit\u00e9"}},{"type":"Feature","geometry":{"type":"Point","coordinates":[2.028458,49.010775]},"properties":{"pdvid":"DEP-2-600261","pdvname":"Tabac Des Meurisier","pdvtypeid":2,"pdvopeninghours":null,"pdvhousenumber":"2","pdvstreet":"Rue Maurice Ravel","pdvpostcode":"95280","pdvtown":"JOUY-LE-MOUTIER","pdvlatitude":49.010775,"pdvlongitude":2.028458,"pdvtypename":"Commerce de proximit\u00e9"}},{"type":"Feature","geometry":{"type":"Point","coordinates":[2.124676,48.624144]},"properties":{"pdvid":"DEP-2-600284","pdvname":"Au Chapeau Rouge","pdvtypeid":2,"pdvopeninghours":"Lundi-Samedi","pdvhousenumber":"2","pdvstreet":"Rue de l'Arm\u00e9e Patton","pdvpostcode":"91640","pdvtown":"BRIIS-SOUS-FORGES","pdvlatitude":48.624144,"pdvlongitude":2.124676,"pdvtypename":"Commerce de proximit\u00e9"}},{"type":"Feature","geometry":{"type":"Point","coordinates":[2.095573,48.87126]},"properties":{"pdvid":"DEP-2-601337","pdvname":"Cafe Le Marly","pdvtypeid":2,"pdvopeninghours":null,"pdvhousenumber":"8","pdvstreet":"Rue Carnot","pdvpostcode":"78160","pdvtown":"MARLY-LE-ROI","pdvlatitude":48.87126,"pdvlongitude":2.095573,"pdvtypename":"Commerce de proximit\u00e9"}},{"type":"Feature","geometry":{"type":"Point","coordinates":[2.873923,48.95723]},"properties":{"pdvid":"DEP-2-601339","pdvname":"Accueil Gare","pdvtypeid":2,"pdvopeninghours":null,"pdvhousenumber":null,"pdvstreet":"Place de la Gare","pdvpostcode":"77100","pdvtown":"MEAUX","pdvlatitude":48.95723,"pdvlongitude":2.873923,"pdvtypename":"Commerce de proximit\u00e9"}},{"type":"Feature","geometry":{"type":"Point","coordinates":[1.835311,48.516789]},"properties":{"pdvid":"DEP-2-601340","pdvname":"Le Cathec","pdvtypeid":2,"pdvopeninghours":null,"pdvhousenumber":"61","pdvstreet":"Rue Pierre Trouv\u00e9","pdvpostcode":"78660","pdvtown":"ABLIS","pdvlatitude":48.516789,"pdvlongitude":1.835311,"pdvtypename":"Commerce de proximit\u00e9"}},{"type":"Feature","geometry":{"type":"Point","coordinates":[1.638402,48.999458]},"properties":{"pdvid":"DEP-2-601349","pdvname":"Tabac Le Sully","pdvtypeid":2,"pdvopeninghours":null,"pdvhousenumber":"1","pdvstreet":"Rue R\u00e9gine Pernoud","pdvpostcode":"78710","pdvtown":"ROSNY-SUR-SEINE","pdvlatitude":48.999458,"pdvlongitude":1.638402,"pdvtypename":"Commerce de proximit\u00e9"}},{"type":"Feature","geometry":{"type":"Point","coordinates":[1.593635,49.040476]},"properties":{"pdvid":"DEP-2-601351","pdvname":"Tabac Presse Papiers Freneuse","pdvtypeid":2,"pdvopeninghours":"Mardi-Dimanche","pdvhousenumber":"2bis","pdvstreet":"Rue Charles de Gaulle","pdvpostcode":"78840","pdvtown":"FRENEUSE","pdvlatitude":49.040476,"pdvlongitude":1.593635,"pdvtypename":"Commerce de proximit\u00e9"}},{"type":"Feature","geometry":{"type":"Point","coordinates":[2.290215,48.990842]},"properties":{"pdvid":"DEP-2-600372","pdvname":"Auchan","pdvtypeid":2,"pdvopeninghours":"Lundi-Samedi","pdvhousenumber":"28","pdvstreet":"Avenue de Paris","pdvpostcode":"95230","pdvtown":"SOISY-SOUS-MONTMORENCY","pdvlatitude":48.990842,"pdvlongitude":2.290215,"pdvtypename":"Commerce de proximit\u00e9"}},{"type":"Feature","geometry":{"type":"Point","coordinates":[2.693946,48.267117]},"properties":{"pdvid":"DEP-2-600375","pdvname":"Le \"37\"","pdvtypeid":2,"pdvopeninghours":null,"pdvhousenumber":"37","pdvstreet":"Rue de Paris","pdvpostcode":"77140","pdvtown":"NEMOURS","pdvlatitude":48.267117,"pdvlongitude":2.693946,"pdvtypename":"Commerce de proximit\u00e9"}},{"type":"Feature","geometry":{"type":"Point","coordinates":[2.330972,48.638747]},"properties":{"pdvid":"DEP-2-600376","pdvname":"Snc Zhang Yang","pdvtypeid":2,"pdvopeninghours":"Mardi-Dimanche","pdvhousenumber":"23","pdvstreet":"Rue des Eglantiers","pdvpostcode":"91700","pdvtown":"SAINTE-GENEVI\u00c8VE-DES-BOIS","pdvlatitude":48.638747,"pdvlongitude":2.330972,"pdvtypename":"Commerce de proximit\u00e9"}},{"type":"Feature","geometry":{"type":"Point","coordinates":[2.005408,48.774976]},"properties":{"pdvid":"DEP-2-600388","pdvname":"Kuoch","pdvtypeid":2,"pdvopeninghours":null,"pdvhousenumber":"22","pdvstreet":"Rue Pierre Semard","pdvpostcode":"78190","pdvtown":"TRAPPES","pdvlatitude":48.774976,"pdvlongitude":2.005408,"pdvtypename":"Commerce de proximit\u00e9"}},{"type":"Feature","geometry":{"type":"Point","coordinates":[2.153712,49.019664]},"properties":{"pdvid":"DEP-2-600389","pdvname":"Le Celtique","pdvtypeid":2,"pdvopeninghours":null,"pdvhousenumber":"7","pdvstreet":"Place du 8 Mai 1945","pdvpostcode":"95480","pdvtown":"PIERRELAYE","pdvlatitude":49.019664,"pdvlongitude":2.153712,"pdvtypename":"Commerce de proximit\u00e9"}},{"type":"Feature","geometry":{"type":"Point","coordinates":[2.373584,48.675893]},"properties":{"pdvid":"DEP-2-600394","pdvname":"Tabac Du Moulin","pdvtypeid":2,"pdvopeninghours":null,"pdvhousenumber":null,"pdvstreet":"marechal leclerc","pdvpostcode":"91170","pdvtown":"VIRY-CH\u00c2TILLON","pdvlatitude":48.675893,"pdvlongitude":2.373584,"pdvtypename":"Commerce de proximit\u00e9"}},{"type":"Feature","geometry":{"type":"Point","coordinates":[2.21303,49.001619]},"properties":{"pdvid":"DEP-2-600396","pdvname":"Le Renouveau","pdvtypeid":2,"pdvopeninghours":null,"pdvhousenumber":"10","pdvstreet":"Place de la Gare","pdvpostcode":"95370","pdvtown":"MONTIGNY-L\u00c8S-CORMEILLES","pdvlatitude":49.001619,"pdvlongitude":2.21303,"pdvtypename":"Commerce de proximit\u00e9"}},{"type":"Feature","geometry":{"type":"Point","coordinates":[2.131704,48.804632]},"properties":{"pdvid":"DEP-2-600509","pdvname":"La Civette Saint Pierre","pdvtypeid":2,"pdvopeninghours":"Lundi-Samedi","pdvhousenumber":"24","pdvstreet":"Avenue de Saint-Cloud","pdvpostcode":"78000","pdvtown":"VERSAILLES","pdvlatitude":48.804632,"pdvlongitude":2.131704,"pdvtypename":"Commerce de proximit\u00e9"}},{"type":"Feature","geometry":{"type":"Point","coordinates":[2.04464,48.78422]},"properties":{"pdvid":"DEP-2-600631","pdvname":"Wu Jinyong","pdvtypeid":2,"pdvopeninghours":null,"pdvhousenumber":"1","pdvstreet":"Passage des Lombards","pdvpostcode":"78180","pdvtown":"MONTIGNY-LE-BRETONNEUX","pdvlatitude":48.78422,"pdvlongitude":2.04464,"pdvtypename":"Commerce de proximit\u00e9"}},{"type":"Feature","geometry":{"type":"Point","coordinates":[1.987889,48.773074]},"properties":{"pdvid":"DEP-2-601265","pdvname":"Lam Lan Anh","pdvtypeid":2,"pdvopeninghours":"Lundi-Mercredi & Vendredi-Dimanche","pdvhousenumber":"7","pdvstreet":"Boulevard Martin Luther King","pdvpostcode":"78190","pdvtown":"TRAPPES","pdvlatitude":48.773074,"pdvlongitude":1.987889,"pdvtypename":"Commerce de proximit\u00e9"}},{"type":"Feature","geometry":{"type":"Point","coordinates":[3.08323,48.812482]},"properties":{"pdvid":"DEP-2-601271","pdvname":"Le Cafe Des Sports","pdvtypeid":2,"pdvopeninghours":"LundiMercredi-Dimanche","pdvhousenumber":"19","pdvstreet":"Rue de la Pecherie","pdvpostcode":"77120","pdvtown":"COULOMMIERS","pdvlatitude":48.812482,"pdvlongitude":3.08323,"pdvtypename":"Commerce de proximit\u00e9"}},{"type":"Feature","geometry":{"type":"Point","coordinates":[3.083808,48.813715]},"properties":{"pdvid":"DEP-2-601282","pdvname":"Le Longchamp","pdvtypeid":2,"pdvopeninghours":"Mardi-Dimanche","pdvhousenumber":"29","pdvstreet":"Rue Beaurepaire","pdvpostcode":"77120","pdvtown":"COULOMMIERS","pdvlatitude":48.813715,"pdvlongitude":3.083808,"pdvtypename":"Commerce de proximit\u00e9"}},{"type":"Feature","geometry":{"type":"Point","coordinates":[1.697751,48.982274]},"properties":{"pdvid":"DEP-2-601317","pdvname":"Le Batavia","pdvtypeid":2,"pdvopeninghours":null,"pdvhousenumber":"115","pdvstreet":"Boulevard Roger Salengro","pdvpostcode":"78711","pdvtown":"MANTES-LA-VILLE","pdvlatitude":48.982274,"pdvlongitude":1.697751,"pdvtypename":"Commerce de proximit\u00e9"}},{"type":"Feature","geometry":{"type":"Point","coordinates":[1.710845,48.996931]},"properties":{"pdvid":"DEP-2-601318","pdvname":"Le Soulier D'Or","pdvtypeid":2,"pdvopeninghours":null,"pdvhousenumber":"16","pdvstreet":"Rue Jean Hoet","pdvpostcode":"78200","pdvtown":"MANTES-LA-JOLIE","pdvlatitude":48.996931,"pdvlongitude":1.710845,"pdvtypename":"Commerce de proximit\u00e9"}},{"type":"Feature","geometry":{"type":"Point","coordinates":[2.982717,48.364804]},"properties":{"pdvid":"DEP-2-601325","pdvname":"Bar Tabac De La Mairie","pdvtypeid":2,"pdvopeninghours":null,"pdvhousenumber":"72","pdvstreet":"Rue D\u00e9sir\u00e9 Thoison","pdvpostcode":"77130","pdvtown":"CANNES-\u00c9CLUSE","pdvlatitude":48.364804,"pdvlongitude":2.982717,"pdvtypename":"Commerce de proximit\u00e9"}},{"type":"Feature","geometry":{"type":"Point","coordinates":[2.565321,48.945366]},"properties":{"pdvid":"DEP-2-600337","pdvname":"Tabac Du Vert Galant","pdvtypeid":2,"pdvopeninghours":null,"pdvhousenumber":"11","pdvstreet":"Avenue de la Gare","pdvpostcode":"93420","pdvtown":"VILLEPINTE","pdvlatitude":48.945366,"pdvlongitude":2.565321,"pdvtypename":"Commerce de proximit\u00e9"}},{"type":"Feature","geometry":{"type":"Point","coordinates":[2.370791,48.656006]},"properties":{"pdvid":"DEP-2-600352","pdvname":"Le Borneo","pdvtypeid":2,"pdvopeninghours":null,"pdvhousenumber":"32bis","pdvstreet":"Route de Fleury","pdvpostcode":"91170","pdvtown":"VIRY-CH\u00c2TILLON","pdvlatitude":48.656006,"pdvlongitude":2.370791,"pdvtypename":"Commerce de proximit\u00e9"}},{"type":"Feature","geometry":{"type":"Point","coordinates":[2.462996,49.023947]},